{"type": "FeatureCollection", "features": [{"type": "Feature", "geometry": {"type": "Point", "coordinates": [-93.27508717775345, 44.98821736831917]}, "properties": {"name": "Butler Square", "region": "minneapolis", "skyway_hours": "", "opening_hours": "Mo-Fr 06:00-18:00"}}, {"type": "Feature", "geometry": {"type": "Point", "coordinates": [-93.27471971511841, 44.98692921691186]}, "properties": {"name": "", "region": "minneapolis", "skyway_hours": "", "opening_hours": ""}}, {"type": "Feature", "geometry": {"type": "Point", "coordinates": [-93.27797055244446, 44.98673570963123]}, "properties": {"name": "Target Field", "region": "minneapolis", "skyway_hours": "", "opening_hours": ""}}, {"type": "Feature", "geometry": {"type": "Point", "coordinates": [-93.27584356069565, 44.98733140851473]}, "properties": {"name": "5th Street Ramp B", "region": "minneapolis", "skyway_hours": "Mo-Su 06:00-19:00", "opening_hours": ""}}, {"type": "Feature", "geometry": {"type": "Point", "coordinates": [-93.278249502182, 44.989230435847155]}, "properties": {"name": "7th Street Ramp A", "region": "minneapolis", "skyway_hours": "Mo-Su 06:00-19:00", "opening_hours": ""}}, {"type": "Feature", "geometry": {"type": "Point", "coordinates": [-93.27411621809006, 44.98555948890585]}, "properties": {"name": "4th Street Ramp C", "region": "minneapolis", "skyway_hours": "Mo-Fr 06:00-19:00", "opening_hours": ""}}, {"type": "Feature", "geometry": {"type": "Point", "coordinates": [-93.27694594860077, 44.97536743120299]}, "properties": {"name": "Hampton Inn & Suites Minneapolis/Downtown", "region": "minneapolis", "skyway_hours": "Mo-Su 05:30-24:00", "opening_hours": ""}}, {"type": "Feature", "geometry": {"type": "Point", "coordinates": [-93.27508717775345, 44.972675038545205]}, "properties": {"name": "Butler Square", "region": "minneapolis", "skyway_hours": "", "opening_hours": "Mo-Fr 06:00-18:00"}}, {"type": "Feature", "geometry": {"type": "Point", "coordinates": [-93.27569335699081, 44.976610219921]}, "properties": {"name": "LaSalle Plaza", "region": "minneapolis", "skyway_hours": "", "opening_hours": ""}}, {"type": "Feature", "geometry": {"type": "Point", "coordinates": [-93.27500402927399, 44.97812243764352]}, "properties": {"name": "", "region": "minneapolis", "skyway_hours": "Mo-We 06:00-20:00; Th-Fr 06:00-02:00; Sa-Su 14:00-02:00", "opening_hours": ""}}, {"type": "Feature", "geometry": {"type": "Point", "coordinates": [-93.27903002500534, 44.97848673601582]}, "properties": {"name": "", "region": "minneapolis", "skyway_hours": "", "opening_hours": ""}}, {"type": "Feature", "geometry": {"type": "Point", "coordinates": [-93.27794909477234, 44.97626679280961]}, "properties": {"name": "Orpheum Theatre", "region": "minneapolis", "skyway_hours": "", "opening_hours": ""}}, {"type": "Feature", "geometry": {"type": "Point", "coordinates": [-93.27471435070038, 44.97420433275393]}, "properties": {"name": "Mayo Clinic Square", "region": "minneapolis", "skyway_hours": "", "opening_hours": "Mo-Fr 06:00-20:00; Sa 06:00-24:00; Su 10:00-18:00"}}, {"type": "Feature", "geometry": {"type": "Point", "coordinates": [-93.27444612979889, 44.97577916425919]}, "properties": {"name": "Park and Shop Ramp", "region": "minneapolis", "skyway_hours": "", "opening_hours": ""}}, {"type": "Feature", "geometry": {"type": "Point", "coordinates": [-93.27762991189957, 44.978629040067496]}, "properties": {"name": "Schulze Hall", "region": "minneapolis", "skyway_hours": "", "opening_hours": ""}}, {"type": "Feature", "geometry": {"type": "Point", "coordinates": [-93.27389627695084, 44.975604604622454]}, "properties": {"name": "Candyland", "region": "minneapolis", "skyway_hours": "", "opening_hours": ""}}, {"type": "Feature", "geometry": {"type": "Point", "coordinates": [-93.27357441186905, 44.975877828401686]}, "properties": {"name": "The Royal Sonesta Minneapolis Downtown", "region": "minneapolis", "skyway_hours": "Mo-Fr 06:00-20:00", "opening_hours": "24/7"}}, {"type": "Feature", "geometry": {"type": "Point", "coordinates": [-93.27877253293991, 44.97915841113975]}, "properties": {"name": "School of Law", "region": "minneapolis", "skyway_hours": "", "opening_hours": ""}}, {"type": "Feature", "geometry": {"type": "Point", "coordinates": [-93.27441662549973, 44.97696882613123]}, "properties": {"name": "811 LaSalle", "region": "minneapolis", "skyway_hours": "", "opening_hours": "Mo-Su 06:00-23:00"}}, {"type": "Feature", "geometry": {"type": "Point", "coordinates": [-93.2738909125328, 44.97726481855872]}, "properties": {"name": "US Bancorp Center", "region": "minneapolis", "skyway_hours": "", "opening_hours": "Mo-Fr 06:00-20:00"}}, {"type": "Feature", "geometry": {"type": "Point", "coordinates": [-93.27363342046738, 44.97842412223308]}, "properties": {"name": "Young-Quinlan Building", "region": "minneapolis", "skyway_hours": "", "opening_hours": "Mo-Fr 06:00-18:00"}}, {"type": "Feature", "geometry": {"type": "Point", "coordinates": [-93.2768440246582, 44.978513299438795]}, "properties": {"name": "Terrence Murphy Hall", "region": "minneapolis", "skyway_hours": "", "opening_hours": ""}}, {"type": "Feature", "geometry": {"type": "Point", "coordinates": [-93.27635854482651, 44.97787387989992]}, "properties": {"name": "Opus Hall", "region": "minneapolis", "skyway_hours": "", "opening_hours": ""}}, {"type": "Feature", "geometry": {"type": "Point", "coordinates": [-93.27640414237976, 44.975591322910965]}, "properties": {"name": "Pence Building", "region": "minneapolis", "skyway_hours": "", "opening_hours": "Mo-Su 05:30-23:00"}}, {"type": "Feature", "geometry": {"type": "Point", "coordinates": [-93.27658116817474, 44.97715097531738]}, "properties": {"name": "The Art Institutes international Minnesota", "region": "minneapolis", "skyway_hours": "", "opening_hours": ""}}, {"type": "Feature", "geometry": {"type": "Point", "coordinates": [-93.27595889568329, 44.977416609547184]}, "properties": {"name": "", "region": "minneapolis", "skyway_hours": "Mo-Su 05:30-23:00", "opening_hours": "24/7"}}, {"type": "Feature", "geometry": {"type": "Point", "coordinates": [-93.27572286128998, 44.97624212677398]}, "properties": {"name": "State Theatre", "region": "minneapolis", "skyway_hours": "", "opening_hours": "Mo-Su 05:30-23:00"}}, {"type": "Feature", "geometry": {"type": "Point", "coordinates": [-93.2781770825386, 44.975327586068516]}, "properties": {"name": "Hawthorne Transportation Center", "region": "minneapolis", "skyway_hours": "Mo-Su 05:30-24:00", "opening_hours": ""}}, {"type": "Feature", "geometry": {"type": "Point", "coordinates": [-93.27273488044739, 44.975192871566264]}, "properties": {"name": "City Center", "region": "minneapolis", "skyway_hours": "", "opening_hours": "Mo-Sa 06:00-20:00; Su 10:00-18:00"}}, {"type": "Feature", "geometry": {"type": "Point", "coordinates": [-93.278249502182, 44.97368824339316]}, "properties": {"name": "7th Street Ramp A", "region": "minneapolis", "skyway_hours": "Mo-Su 06:00-19:00", "opening_hours": ""}}, {"type": "Feature", "geometry": {"type": "Point", "coordinates": [-93.27610909938812, 44.97339604574038]}, "properties": {"name": "Target Center", "region": "minneapolis", "skyway_hours": "Mo-Fr 05:00-20:00", "opening_hours": "Mo-Fr 05:00-20:00; Sa-Su 06:00-24:00"}}, {"type": "Feature", "geometry": {"type": "Point", "coordinates": [-93.27346444129944, 44.97629904839466]}, "properties": {"name": "", "region": "minneapolis", "skyway_hours": "", "opening_hours": "Mo-Fr 06:00-20:00; Sa 08:00-18:00"}}, {"type": "Feature", "geometry": {"type": "Point", "coordinates": [-93.27383726835251, 44.97467298743079]}, "properties": {"name": "", "region": "minneapolis", "skyway_hours": "", "opening_hours": "Mo-Fr 06:00-20:00; Sa 06:00-20:00; Su 10:00-18:00"}}, {"type": "Feature", "geometry": {"type": "Point", "coordinates": [-93.2771310210228, 44.973136103672644]}, "properties": {"name": "", "region": "minneapolis", "skyway_hours": "", "opening_hours": ""}}, {"type": "Feature", "geometry": {"type": "Point", "coordinates": [-93.27722758054733, 44.97742989125867]}, "properties": {"name": "FAIR School for Arts", "region": "minneapolis", "skyway_hours": "Mo-Su 06:00-20:00", "opening_hours": ""}}, {"type": "Feature", "geometry": {"type": "Point", "coordinates": [-93.27582478523254, 44.979093899969655]}, "properties": {"name": "Target Plaza", "region": "minneapolis", "skyway_hours": "", "opening_hours": ""}}, {"type": "Feature", "geometry": {"type": "Point", "coordinates": [-93.27724635601044, 44.97844119871928]}, "properties": {"name": "", "region": "minneapolis", "skyway_hours": "", "opening_hours": ""}}, {"type": "Feature", "geometry": {"type": "Point", "coordinates": [-93.27495843172073, 44.98071806354616]}, "properties": {"name": "Orchestra Hall", "region": "minneapolis", "skyway_hours": "", "opening_hours": ""}}, {"type": "Feature", "geometry": {"type": "Point", "coordinates": [-93.27369511127472, 44.96573157142954]}, "properties": {"name": "Marquette Parking Ramp", "region": "minneapolis", "skyway_hours": "Mo-Fr 06:30-18:00", "opening_hours": "24/7"}}, {"type": "Feature", "geometry": {"type": "Point", "coordinates": [-93.27595889568329, 44.966075045085695]}, "properties": {"name": "Westminster Presbyterian", "region": "minneapolis", "skyway_hours": "off", "opening_hours": ""}}, {"type": "Feature", "geometry": {"type": "Point", "coordinates": [-93.2738345861435, 44.96842053369905]}, "properties": {"name": "Minneapolis Convention Center", "region": "minneapolis", "skyway_hours": "Mo-Fr 06:30-18:00", "opening_hours": ""}}, {"type": "Feature", "geometry": {"type": "Point", "coordinates": [-93.27642291784286, 44.96707510374204]}, "properties": {"name": "Marquette Place", "region": "minneapolis", "skyway_hours": "", "opening_hours": ""}}, {"type": "Feature", "geometry": {"type": "Point", "coordinates": [-93.2787698507309, 44.96712064721026]}, "properties": {"name": "Loring Parking Ramp", "region": "minneapolis", "skyway_hours": "", "opening_hours": ""}}, {"type": "Feature", "geometry": {"type": "Point", "coordinates": [-93.27708542346954, 44.96694037098189]}, "properties": {"name": "Sheraton Minneapolis Downtown Convention Center", "region": "minneapolis", "skyway_hours": "", "opening_hours": ""}}, {"type": "Feature", "geometry": {"type": "Point", "coordinates": [-93.27495843172073, 44.96517366394384]}, "properties": {"name": "Orchestra Hall", "region": "minneapolis", "skyway_hours": "", "opening_hours": ""}}, {"type": "Feature", "geometry": {"type": "Point", "coordinates": [-93.27845603227615, 44.96668418897315]}, "properties": {"name": "", "region": "minneapolis", "skyway_hours": "Mo-Fr 06:00-18:00", "opening_hours": ""}}, {"type": "Feature", "geometry": {"type": "Point", "coordinates": [-93.26755821704865, 44.98764253786789]}, "properties": {"name": "Marquette Plaza", "region": "minneapolis", "skyway_hours": "", "opening_hours": "Mo-Fr 06:00-19:00"}}, {"type": "Feature", "geometry": {"type": "Point", "coordinates": [-93.26922655105591, 44.987069604546825]}, "properties": {"name": "RBC Gateway", "region": "minneapolis", "skyway_hours": "Mo-Fr 06:30-20:00", "opening_hours": ""}}, {"type": "Feature", "geometry": {"type": "Point", "coordinates": [-93.26454609632492, 44.98620641030481]}, "properties": {"name": "", "region": "minneapolis", "skyway_hours": "", "opening_hours": "Mo-Su 06:00-22:00"}}, {"type": "Feature", "geometry": {"type": "Point", "coordinates": [-93.26500475406647, 44.985863029738205]}, "properties": {"name": "The Churchill", "region": "minneapolis", "skyway_hours": "", "opening_hours": "Mo-Su 06:00-22:00"}}, {"type": "Feature", "geometry": {"type": "Point", "coordinates": [-93.26573699712753, 44.98723465487441]}, "properties": {"name": "100 Washington Square", "region": "minneapolis", "skyway_hours": "", "opening_hours": "Mo-Fr 06:00-18:00; Sa-Su 08:00-18:00"}}, {"type": "Feature", "geometry": {"type": "Point", "coordinates": [-93.2662707567215, 44.988207882668156]}, "properties": {"name": "The Crossings", "region": "minneapolis", "skyway_hours": "", "opening_hours": "Mo-We 06:00-19:00, Mo-We 19:00-22:00 open \"skyway only\"; Th-Fr 06:00-22:00; Sa 07:00-20:00; Su 12:00-18:00"}}, {"type": "Feature", "geometry": {"type": "Point", "coordinates": [-93.27411621809006, 44.98555948890585]}, "properties": {"name": "4th Street Ramp C", "region": "minneapolis", "skyway_hours": "Mo-Fr 06:00-19:00", "opening_hours": ""}}, {"type": "Feature", "geometry": {"type": "Point", "coordinates": [-93.2668662071228, 44.988033346689555]}, "properties": {"name": "111 Washington Square", "region": "minneapolis", "skyway_hours": "", "opening_hours": ""}}, {"type": "Feature", "geometry": {"type": "Point", "coordinates": [-93.27009826898575, 44.98787588488277]}, "properties": {"name": "Minneapolis Central Library", "region": "minneapolis", "skyway_hours": "Mo-Fr 06:00-20:00", "opening_hours": "Mo-Th 09:00-20:00; Fr,Sa 09:00-17:00; Su 12:00-17:00"}}, {"type": "Feature", "geometry": {"type": "Point", "coordinates": [-93.26956182718277, 44.97357440015182]}, "properties": {"name": "Xcel Energy", "region": "minneapolis", "skyway_hours": "Mo-Fr 06:00-20:00", "opening_hours": ""}}, {"type": "Feature", "geometry": {"type": "Point", "coordinates": [-93.26556265354156, 44.974139821583826]}, "properties": {"name": "Minneapolis Public Service Center", "region": "minneapolis", "skyway_hours": "", "opening_hours": "Mo-Fr 06:30-18:00; PH off"}}, {"type": "Feature", "geometry": {"type": "Point", "coordinates": [-93.26419472694397, 44.97357819492653]}, "properties": {"name": "", "region": "minneapolis", "skyway_hours": "", "opening_hours": ""}}, {"type": "Feature", "geometry": {"type": "Point", "coordinates": [-93.26833605766296, 44.97465780833195]}, "properties": {"name": "Fifth Street Towers", "region": "minneapolis", "skyway_hours": "", "opening_hours": "Mo-Fr 06:30-20:00"}}, {"type": "Feature", "geometry": {"type": "Point", "coordinates": [-93.26247274875641, 44.974274536086085]}, "properties": {"name": "Gateway Municipal Garage", "region": "minneapolis", "skyway_hours": "Mo-Fr 05:00-22:00; Sa 08:00-20:00; Su 12:00-18:00", "opening_hours": "24/7"}}, {"type": "Feature", "geometry": {"type": "Point", "coordinates": [-93.27268928289413, 44.97806361863549]}, "properties": {"name": "Metro Apartments", "region": "minneapolis", "skyway_hours": "", "opening_hours": ""}}, {"type": "Feature", "geometry": {"type": "Point", "coordinates": [-93.27013581991196, 44.977238255135745]}, "properties": {"name": "706 Building", "region": "minneapolis", "skyway_hours": "", "opening_hours": ""}}, {"type": "Feature", "geometry": {"type": "Point", "coordinates": [-93.26997488737106, 44.97603341416485]}, "properties": {"name": "Six Quebec", "region": "minneapolis", "skyway_hours": "", "opening_hours": "Mo-Fr 06:00-20:00"}}, {"type": "Feature", "geometry": {"type": "Point", "coordinates": [-93.27322036027908, 44.97765378296665]}, "properties": {"name": "", "region": "minneapolis", "skyway_hours": "", "opening_hours": ""}}, {"type": "Feature", "geometry": {"type": "Point", "coordinates": [-93.27195435762405, 44.9767771900083]}, "properties": {"name": "IDS Center", "region": "minneapolis", "skyway_hours": "", "opening_hours": ""}}, {"type": "Feature", "geometry": {"type": "Point", "coordinates": [-93.26974958181381, 44.974098079062]}, "properties": {"name": "The Nic on Fifth", "region": "minneapolis", "skyway_hours": "Mo-Fr 06:00-20:00", "opening_hours": ""}}, {"type": "Feature", "geometry": {"type": "Point", "coordinates": [-93.26366633176804, 44.975338970392656]}, "properties": {"name": "Grain Exchange Main Building", "region": "minneapolis", "skyway_hours": "off", "opening_hours": ""}}, {"type": "Feature", "geometry": {"type": "Point", "coordinates": [-93.26949745416641, 44.98047519796463]}, "properties": {"name": "Ameriprise Financial Headquarters", "region": "minneapolis", "skyway_hours": "", "opening_hours": "Mo-Fr 06:00-20:00"}}, {"type": "Feature", "geometry": {"type": "Point", "coordinates": [-93.27172636985779, 44.97321389655423]}, "properties": {"name": "Lumber Exchange", "region": "minneapolis", "skyway_hours": "", "opening_hours": "Mo-Fr 07:30-17:30"}}, {"type": "Feature", "geometry": {"type": "Point", "coordinates": [-93.26884031295776, 44.97694795487032]}, "properties": {"name": "Hyatt Centric Downtown Minneapolis", "region": "minneapolis", "skyway_hours": "", "opening_hours": ""}}, {"type": "Feature", "geometry": {"type": "Point", "coordinates": [-93.27022433280945, 44.97516251336857]}, "properties": {"name": "The Westin Minneapolis", "region": "minneapolis", "skyway_hours": "Mo-Fr 06:00-23:00", "opening_hours": ""}}, {"type": "Feature", "geometry": {"type": "Point", "coordinates": [-93.27339738607407, 44.9752213323766]}, "properties": {"name": "Minneapolis Marriott City Center", "region": "minneapolis", "skyway_hours": "", "opening_hours": ""}}, {"type": "Feature", "geometry": {"type": "Point", "coordinates": [-93.26664090156555, 44.97877513889389]}, "properties": {"name": "701 Building", "region": "minneapolis", "skyway_hours": "", "opening_hours": "Mo-Fr 06:00-20:00"}}, {"type": "Feature", "geometry": {"type": "Point", "coordinates": [-93.26887786388397, 44.97564255236957]}, "properties": {"name": "Canadian Pacific Plaza", "region": "minneapolis", "skyway_hours": "", "opening_hours": "Mo-Fr 06:00-20:00; Sa 08:00-14:00"}}, {"type": "Feature", "geometry": {"type": "Point", "coordinates": [-93.27065080404282, 44.97697641568065]}, "properties": {"name": "705 Building", "region": "minneapolis", "skyway_hours": "", "opening_hours": "Mo-Fr 06:00-20:00"}}, {"type": "Feature", "geometry": {"type": "Point", "coordinates": [-93.27444612979889, 44.97577916425919]}, "properties": {"name": "Park and Shop Ramp", "region": "minneapolis", "skyway_hours": "", "opening_hours": ""}}, {"type": "Feature", "geometry": {"type": "Point", "coordinates": [-93.26943576335907, 44.976264895422254]}, "properties": {"name": "Groove Lofts", "region": "minneapolis", "skyway_hours": "", "opening_hours": "Mo-Fr 06:00-20:00"}}, {"type": "Feature", "geometry": {"type": "Point", "coordinates": [-93.27127307653427, 44.978274228631975]}, "properties": {"name": "Deluxe Plaza", "region": "minneapolis", "skyway_hours": "", "opening_hours": "Mo-Fr 06:00-20:00"}}, {"type": "Feature", "geometry": {"type": "Point", "coordinates": [-93.27117383480072, 44.9742138196907]}, "properties": {"name": "The Andrus", "region": "minneapolis", "skyway_hours": "", "opening_hours": ""}}, {"type": "Feature", "geometry": {"type": "Point", "coordinates": [-93.27165395021439, 44.98087364930933]}, "properties": {"name": "Leamington Municipal Ramp", "region": "minneapolis", "skyway_hours": "Mo-Fr 06:00-18:00", "opening_hours": "24/7"}}, {"type": "Feature", "geometry": {"type": "Point", "coordinates": [-93.27202141284943, 44.973862803029895]}, "properties": {"name": "", "region": "minneapolis", "skyway_hours": "", "opening_hours": ""}}, {"type": "Feature", "geometry": {"type": "Point", "coordinates": [-93.2662707567215, 44.97266555160842]}, "properties": {"name": "The Crossings", "region": "minneapolis", "skyway_hours": "", "opening_hours": "Mo-We 06:00-19:00, Mo-We 19:00-22:00 open \"skyway only\"; Th-Fr 06:00-22:00; Sa 07:00-20:00; Su 12:00-18:00"}}, {"type": "Feature", "geometry": {"type": "Point", "coordinates": [-93.27195435762405, 44.97937091852359]}, "properties": {"name": "Forum", "region": "minneapolis", "skyway_hours": "", "opening_hours": "Mo-Fr 06:00-20:00"}}, {"type": "Feature", "geometry": {"type": "Point", "coordinates": [-93.26598107814789, 44.97802567088837]}, "properties": {"name": "", "region": "minneapolis", "skyway_hours": "", "opening_hours": "off"}}, {"type": "Feature", "geometry": {"type": "Point", "coordinates": [-93.26467484235764, 44.97724774207252]}, "properties": {"name": "Government Center Garage", "region": "minneapolis", "skyway_hours": "", "opening_hours": "24/7"}}, {"type": "Feature", "geometry": {"type": "Point", "coordinates": [-93.27389627695084, 44.975604604622454]}, "properties": {"name": "Candyland", "region": "minneapolis", "skyway_hours": "", "opening_hours": ""}}, {"type": "Feature", "geometry": {"type": "Point", "coordinates": [-93.27357441186905, 44.975877828401686]}, "properties": {"name": "The Royal Sonesta Minneapolis Downtown", "region": "minneapolis", "skyway_hours": "Mo-Fr 06:00-20:00", "opening_hours": "24/7"}}, {"type": "Feature", "geometry": {"type": "Point", "coordinates": [-93.27323645353317, 44.977875777287274]}, "properties": {"name": "Medical Arts Building", "region": "minneapolis", "skyway_hours": "", "opening_hours": "Mo-Fr 06:00-18:00"}}, {"type": "Feature", "geometry": {"type": "Point", "coordinates": [-93.27441662549973, 44.97696882613123]}, "properties": {"name": "811 LaSalle", "region": "minneapolis", "skyway_hours": "", "opening_hours": "Mo-Su 06:00-23:00"}}, {"type": "Feature", "geometry": {"type": "Point", "coordinates": [-93.26366096735, 44.97349281249552]}, "properties": {"name": "Cortland Mill District", "region": "minneapolis", "skyway_hours": "", "opening_hours": ""}}, {"type": "Feature", "geometry": {"type": "Point", "coordinates": [-93.26730608940125, 44.9751055917479]}, "properties": {"name": "McKnight Building", "region": "minneapolis", "skyway_hours": "", "opening_hours": "Mo-Fr 06:30-20:00"}}, {"type": "Feature", "geometry": {"type": "Point", "coordinates": [-93.27280730009079, 44.974090489512584]}, "properties": {"name": "Plymouth Building", "region": "minneapolis", "skyway_hours": "Mo-Fr 06:00-20:00; Sa 08:00-18:00; Su 11:00-18:00", "opening_hours": ""}}, {"type": "Feature", "geometry": {"type": "Point", "coordinates": [-93.2738909125328, 44.97726481855872]}, "properties": {"name": "US Bancorp Center", "region": "minneapolis", "skyway_hours": "", "opening_hours": "Mo-Fr 06:00-20:00"}}, {"type": "Feature", "geometry": {"type": "Point", "coordinates": [-93.26930433511734, 44.97530481742025]}, "properties": {"name": "517 Marquette Garage", "region": "minneapolis", "skyway_hours": "", "opening_hours": "24/7"}}, {"type": "Feature", "geometry": {"type": "Point", "coordinates": [-93.27182024717331, 44.973950082848255]}, "properties": {"name": "15 Building", "region": "minneapolis", "skyway_hours": "", "opening_hours": "Mo-Fr 06:00-18:00"}}, {"type": "Feature", "geometry": {"type": "Point", "coordinates": [-93.26274901628494, 44.97937091852359]}, "properties": {"name": "HCMC Purple Parking Ramp", "region": "minneapolis", "skyway_hours": "", "opening_hours": ""}}, {"type": "Feature", "geometry": {"type": "Point", "coordinates": [-93.27104777097702, 44.97326512601283]}, "properties": {"name": "Midtown Parking Ramp", "region": "minneapolis", "skyway_hours": "", "opening_hours": "24/7"}}, {"type": "Feature", "geometry": {"type": "Point", "coordinates": [-93.27000707387924, 44.9791906667248]}, "properties": {"name": "Two22", "region": "minneapolis", "skyway_hours": "", "opening_hours": "Mo-Fr 06:00-20:00"}}, {"type": "Feature", "geometry": {"type": "Point", "coordinates": [-93.26874643564224, 44.979553067709745]}, "properties": {"name": "Energy Center Ramp", "region": "minneapolis", "skyway_hours": "Mo-Fr 06:00-20:00", "opening_hours": "24/7"}}, {"type": "Feature", "geometry": {"type": "Point", "coordinates": [-93.2650476694107, 44.97313989844736]}, "properties": {"name": "", "region": "minneapolis", "skyway_hours": "", "opening_hours": "off"}}, {"type": "Feature", "geometry": {"type": "Point", "coordinates": [-93.26541244983673, 44.975627373270726]}, "properties": {"name": "Minneapolis City Hall", "region": "minneapolis", "skyway_hours": "", "opening_hours": "Mo-Fr 07:00-18:00; PH off"}}, {"type": "Feature", "geometry": {"type": "Point", "coordinates": [-93.27059715986252, 44.97472611427675]}, "properties": {"name": "60 South Sixth", "region": "minneapolis", "skyway_hours": "", "opening_hours": "Mo-Fr 06:00-20:00"}}, {"type": "Feature", "geometry": {"type": "Point", "coordinates": [-93.27363342046738, 44.97842412223308]}, "properties": {"name": "Young-Quinlan Building", "region": "minneapolis", "skyway_hours": "", "opening_hours": "Mo-Fr 06:00-18:00"}}, {"type": "Feature", "geometry": {"type": "Point", "coordinates": [-93.27130258083344, 44.9728249321463]}, "properties": {"name": "AC Hotel by Marriott Minneapolis Downtown", "region": "minneapolis", "skyway_hours": "", "opening_hours": ""}}, {"type": "Feature", "geometry": {"type": "Point", "coordinates": [-93.26693594455719, 44.974690063916995]}, "properties": {"name": "Emery, Autograph Collection", "region": "minneapolis", "skyway_hours": "Mo-Fr 06:30-22:00; Sa 09:30-20:00; Su 12:00-18:00", "opening_hours": "Mo-Fr 06:00-20:00"}}, {"type": "Feature", "geometry": {"type": "Point", "coordinates": [-93.26759576797485, 44.975978389931534]}, "properties": {"name": "US Bank Plaza", "region": "minneapolis", "skyway_hours": "", "opening_hours": "Mo-Fr 06:00-20:00; Sa 08:00-14:00"}}, {"type": "Feature", "geometry": {"type": "Point", "coordinates": [-93.26620906591415, 44.979217230147775]}, "properties": {"name": "Centre Village", "region": "minneapolis", "skyway_hours": "", "opening_hours": ""}}, {"type": "Feature", "geometry": {"type": "Point", "coordinates": [-93.26640754938126, 44.974310586445846]}, "properties": {"name": "TriTech Office Center", "region": "minneapolis", "skyway_hours": "", "opening_hours": "Mo-Fr 06:00-20:00; Sa 09:30-20:00; Su 12:00-18:00"}}, {"type": "Feature", "geometry": {"type": "Point", "coordinates": [-93.27100217342377, 44.977353995764446]}, "properties": {"name": "733 Building", "region": "minneapolis", "skyway_hours": "", "opening_hours": "Mo-Fr 06:00-20:00"}}, {"type": "Feature", "geometry": {"type": "Point", "coordinates": [-93.27240228652954, 44.978959185467396]}, "properties": {"name": "AT&T Tower", "region": "minneapolis", "skyway_hours": "", "opening_hours": "Mo-Fr 06:00-20:00"}}, {"type": "Feature", "geometry": {"type": "Point", "coordinates": [-93.27047914266586, 44.97332015024615]}, "properties": {"name": "", "region": "minneapolis", "skyway_hours": "", "opening_hours": ""}}, {"type": "Feature", "geometry": {"type": "Point", "coordinates": [-93.27260076999664, 44.97754752927473]}, "properties": {"name": "RSM Plaza", "region": "minneapolis", "skyway_hours": "", "opening_hours": "Mo-Fr 06:00-22:00"}}, {"type": "Feature", "geometry": {"type": "Point", "coordinates": [-93.26402306556702, 44.974635039683676]}, "properties": {"name": "Flour Exchange Building", "region": "minneapolis", "skyway_hours": "", "opening_hours": "Mo-Fr 07:00-17:00"}}, {"type": "Feature", "geometry": {"type": "Point", "coordinates": [-93.27178806066513, 44.97450222256877]}, "properties": {"name": "50 South Sixth", "region": "minneapolis", "skyway_hours": "", "opening_hours": "Mo-Fr 06:00-20:00; Sa 08:00-18:00; Su 10:00-18:00"}}, {"type": "Feature", "geometry": {"type": "Point", "coordinates": [-93.26955914497375, 44.97804274737457]}, "properties": {"name": "Minneapolis Club", "region": "minneapolis", "skyway_hours": "", "opening_hours": ""}}, {"type": "Feature", "geometry": {"type": "Point", "coordinates": [-93.26398551464081, 44.973893161227586]}, "properties": {"name": "", "region": "minneapolis", "skyway_hours": "", "opening_hours": ""}}, {"type": "Feature", "geometry": {"type": "Point", "coordinates": [-93.26462924480438, 44.97446806959637]}, "properties": {"name": "United States Courthouse and Federal Building", "region": "minneapolis", "skyway_hours": "", "opening_hours": "Mo-Fr 07:00-18:00"}}, {"type": "Feature", "geometry": {"type": "Point", "coordinates": [-93.27047646045685, 44.97761393783218]}, "properties": {"name": "730 Building", "region": "minneapolis", "skyway_hours": "", "opening_hours": "Mo-Fr 06:00-20:00"}}, {"type": "Feature", "geometry": {"type": "Point", "coordinates": [-93.27083587646484, 44.97595941605798]}, "properties": {"name": "Wells Fargo Center", "region": "minneapolis", "skyway_hours": "", "opening_hours": "Mo-Fr 06:00-20:00; PH off"}}, {"type": "Feature", "geometry": {"type": "Point", "coordinates": [-93.27178806066513, 44.97842981439515]}, "properties": {"name": "Foshay Tower", "region": "minneapolis", "skyway_hours": "", "opening_hours": "Mo-Fr 07:00-20:00"}}, {"type": "Feature", "geometry": {"type": "Point", "coordinates": [-93.26902270317078, 44.9750410805778]}, "properties": {"name": "Soo Line Building", "region": "minneapolis", "skyway_hours": "", "opening_hours": "Mo-Fr 06:00-22:00"}}, {"type": "Feature", "geometry": {"type": "Point", "coordinates": [-93.27273488044739, 44.975192871566264]}, "properties": {"name": "City Center", "region": "minneapolis", "skyway_hours": "", "opening_hours": "Mo-Sa 06:00-20:00; Su 10:00-18:00"}}, {"type": "Feature", "geometry": {"type": "Point", "coordinates": [-93.26420545578003, 44.97845448043077]}, "properties": {"name": "Thrivent Corporate Center", "region": "minneapolis", "skyway_hours": "", "opening_hours": ""}}, {"type": "Feature", "geometry": {"type": "Point", "coordinates": [-93.26828241348267, 44.976927083609404]}, "properties": {"name": "Capella Tower", "region": "minneapolis", "skyway_hours": "", "opening_hours": "Mo-Fr 06:00-20:00"}}, {"type": "Feature", "geometry": {"type": "Point", "coordinates": [-93.26917558908463, 44.972726268003804]}, "properties": {"name": "", "region": "minneapolis", "skyway_hours": "Mo-Fr 06:00-20:00", "opening_hours": ""}}, {"type": "Feature", "geometry": {"type": "Point", "coordinates": [-93.27259808778763, 44.97941455843277]}, "properties": {"name": "", "region": "minneapolis", "skyway_hours": "Mo-Fr 06:00-18:00", "opening_hours": "24/7"}}, {"type": "Feature", "geometry": {"type": "Point", "coordinates": [-93.26524347066879, 44.97702195297719]}, "properties": {"name": "Minneapolis Public Service Building", "region": "minneapolis", "skyway_hours": "", "opening_hours": "Mo-Fr 06:30-18:00; PH off"}}, {"type": "Feature", "geometry": {"type": "Point", "coordinates": [-93.26345175504684, 44.97483047058132]}, "properties": {"name": "Grain Exchange Annex", "region": "minneapolis", "skyway_hours": "off", "opening_hours": ""}}, {"type": "Feature", "geometry": {"type": "Point", "coordinates": [-93.27292531728745, 44.98032720175088]}, "properties": {"name": "Hilton Minneapolis", "region": "minneapolis", "skyway_hours": "Mo-Fr 06:00-20:00", "opening_hours": "24/7"}}, {"type": "Feature", "geometry": {"type": "Point", "coordinates": [-93.26891541481018, 44.97316266709563]}, "properties": {"name": "365 Nicollet", "region": "minneapolis", "skyway_hours": "Mo-Fr 06:00-20:00", "opening_hours": ""}}, {"type": "Feature", "geometry": {"type": "Point", "coordinates": [-93.27016532421112, 44.97647930019345]}, "properties": {"name": "Northstar West", "region": "minneapolis", "skyway_hours": "", "opening_hours": "Mo-Fr 06:00-20:00"}}, {"type": "Feature", "geometry": {"type": "Point", "coordinates": [-93.27346444129944, 44.97629904839466]}, "properties": {"name": "", "region": "minneapolis", "skyway_hours": "", "opening_hours": "Mo-Fr 06:00-20:00; Sa 08:00-18:00"}}, {"type": "Feature", "geometry": {"type": "Point", "coordinates": [-93.26403647661209, 44.97620607641422]}, "properties": {"name": "Hennepin County Public Safety Center", "region": "minneapolis", "skyway_hours": "", "opening_hours": "Mo-Fr 06:00-22:00; PH off"}}, {"type": "Feature", "geometry": {"type": "Point", "coordinates": [-93.26989978551865, 44.974775446348]}, "properties": {"name": "510 Marquette", "region": "minneapolis", "skyway_hours": "", "opening_hours": ""}}, {"type": "Feature", "geometry": {"type": "Point", "coordinates": [-93.26908707618713, 44.97771829413674]}, "properties": {"name": "Ameriprise Financial Center", "region": "minneapolis", "skyway_hours": "", "opening_hours": "Mo-Fr 06:00-20:00"}}, {"type": "Feature", "geometry": {"type": "Point", "coordinates": [-93.2668662071228, 44.972490991971696]}, "properties": {"name": "111 Washington Square", "region": "minneapolis", "skyway_hours": "", "opening_hours": ""}}, {"type": "Feature", "geometry": {"type": "Point", "coordinates": [-93.27383726835251, 44.97467298743079]}, "properties": {"name": "", "region": "minneapolis", "skyway_hours": "", "opening_hours": "Mo-Fr 06:00-20:00; Sa 06:00-20:00; Su 10:00-18:00"}}, {"type": "Feature", "geometry": {"type": "Point", "coordinates": [-93.27008754014969, 44.978629040067496]}, "properties": {"name": "Saint Olaf Catholic Church", "region": "minneapolis", "skyway_hours": "", "opening_hours": ""}}, {"type": "Feature", "geometry": {"type": "Point", "coordinates": [-93.2666677236557, 44.977065592886376]}, "properties": {"name": "Hennepin County Government Center", "region": "minneapolis", "skyway_hours": "", "opening_hours": "Mo-Fr 06:00-20:00; PH off"}}, {"type": "Feature", "geometry": {"type": "Point", "coordinates": [-93.27137768268585, 44.97572224263851]}, "properties": {"name": "Gaviidae Common", "region": "minneapolis", "skyway_hours": "", "opening_hours": "Mo-Fr 06:00-20:00"}}, {"type": "Feature", "geometry": {"type": "Point", "coordinates": [-93.27009826898575, 44.97233350882117]}, "properties": {"name": "Minneapolis Central Library", "region": "minneapolis", "skyway_hours": "Mo-Fr 06:00-20:00", "opening_hours": "Mo-Th 09:00-20:00; Fr,Sa 09:00-17:00; Su 12:00-17:00"}}, {"type": "Feature", "geometry": {"type": "Point", "coordinates": [-93.26757431030273, 44.978653706103124]}, "properties": {"name": "SPS Tower", "region": "minneapolis", "skyway_hours": "", "opening_hours": "Mo-Fr 06:00-20:00"}}, {"type": "Feature", "geometry": {"type": "Point", "coordinates": [-93.26955378055573, 44.97557614381212]}, "properties": {"name": "Rand Tower Hotel", "region": "minneapolis", "skyway_hours": "", "opening_hours": "Mo-Fr 06:00-20:00"}}, {"type": "Feature", "geometry": {"type": "Point", "coordinates": [-93.26545536518097, 44.978236280884865]}, "properties": {"name": "Sora Apartments", "region": "minneapolis", "skyway_hours": "", "opening_hours": "Mo-Fr 06:30-18:00"}}, {"type": "Feature", "geometry": {"type": "Point", "coordinates": [-93.26696276664734, 44.97365978258283]}, "properties": {"name": "330 South Second", "region": "minneapolis", "skyway_hours": "", "opening_hours": "Mo-Fr 06:00-20:00; Sa 09:30-20:00; Su 12:00-18:00"}}, {"type": "Feature", "geometry": {"type": "Point", "coordinates": [-93.2629206776619, 44.97531809913174]}, "properties": {"name": "Jerry Haaf Memorial Garage", "region": "minneapolis", "skyway_hours": "", "opening_hours": "24/7"}}, {"type": "Feature", "geometry": {"type": "Point", "coordinates": [-93.26962620019913, 44.97671078145085]}, "properties": {"name": "Hotel Indigo Minneapolis Downtown", "region": "minneapolis", "skyway_hours": "", "opening_hours": ""}}, {"type": "Feature", "geometry": {"type": "Point", "coordinates": [-93.27369511127472, 44.96573157142954]}, "properties": {"name": "Marquette Parking Ramp", "region": "minneapolis", "skyway_hours": "Mo-Fr 06:30-18:00", "opening_hours": "24/7"}}, {"type": "Feature", "geometry": {"type": "Point", "coordinates": [-93.26949745416641, 44.96493076544666]}, "properties": {"name": "Ameriprise Financial Headquarters", "region": "minneapolis", "skyway_hours": "", "opening_hours": "Mo-Fr 06:00-20:00"}}, {"type": "Feature", "geometry": {"type": "Point", "coordinates": [-93.27268660068512, 44.96596498170417]}, "properties": {"name": "Hotel Ivy, a Luxury Collection Hotel, Minneapolis", "region": "minneapolis", "skyway_hours": "Mo-Fr 06:00-18:00", "opening_hours": ""}}, {"type": "Feature", "geometry": {"type": "Point", "coordinates": [-93.27165395021439, 44.96532927079359]}, "properties": {"name": "Leamington Municipal Ramp", "region": "minneapolis", "skyway_hours": "Mo-Fr 06:00-18:00", "opening_hours": "24/7"}}, {"type": "Feature", "geometry": {"type": "Point", "coordinates": [-93.2738345861435, 44.96842053369905]}, "properties": {"name": "Minneapolis Convention Center", "region": "minneapolis", "skyway_hours": "Mo-Fr 06:30-18:00", "opening_hours": ""}}, {"type": "Feature", "geometry": {"type": "Point", "coordinates": [-93.26231449842453, 44.96522300270107]}, "properties": {"name": "Red Building", "region": "minneapolis", "skyway_hours": "", "opening_hours": ""}}, {"type": "Feature", "geometry": {"type": "Point", "coordinates": [-93.26319426298141, 44.966240140158]}, "properties": {"name": "Ambulatory Outpatient Specialty Center", "region": "minneapolis", "skyway_hours": "", "opening_hours": ""}}, {"type": "Feature", "geometry": {"type": "Point", "coordinates": [-93.27292531728745, 44.964782749174944]}, "properties": {"name": "Hilton Minneapolis", "region": "minneapolis", "skyway_hours": "Mo-Fr 06:00-20:00", "opening_hours": "24/7"}}, {"type": "Feature", "geometry": {"type": "Point", "coordinates": [-93.26247274875641, 44.974274536086085]}, "properties": {"name": "Gateway Municipal Garage", "region": "minneapolis", "skyway_hours": "Mo-Fr 05:00-22:00; Sa 08:00-20:00; Su 12:00-18:00", "opening_hours": "24/7"}}, {"type": "Feature", "geometry": {"type": "Point", "coordinates": [-93.26187193393707, 44.98000464590041]}, "properties": {"name": "Purple Building", "region": "minneapolis", "skyway_hours": "", "opening_hours": ""}}, {"type": "Feature", "geometry": {"type": "Point", "coordinates": [-93.25961083173752, 44.97718133351507]}, "properties": {"name": "4th & Park", "region": "minneapolis", "skyway_hours": "", "opening_hours": ""}}, {"type": "Feature", "geometry": {"type": "Point", "coordinates": [-93.26231449842453, 44.98076739561741]}, "properties": {"name": "Red Building", "region": "minneapolis", "skyway_hours": "", "opening_hours": ""}}, {"type": "Feature", "geometry": {"type": "Point", "coordinates": [-93.25910657644272, 44.97690241757378]}, "properties": {"name": "Mills Fleet Farm Parking Garage", "region": "minneapolis", "skyway_hours": "", "opening_hours": "24/7"}}, {"type": "Feature", "geometry": {"type": "Point", "coordinates": [-93.2574650645256, 44.97934435510061]}, "properties": {"name": "US Bank Stadium", "region": "minneapolis", "skyway_hours": "", "opening_hours": ""}}, {"type": "Feature", "geometry": {"type": "Point", "coordinates": [-93.26274901628494, 44.97937091852359]}, "properties": {"name": "HCMC Purple Parking Ramp", "region": "minneapolis", "skyway_hours": "", "opening_hours": ""}}, {"type": "Feature", "geometry": {"type": "Point", "coordinates": [-93.26063543558121, 44.9764774028061]}, "properties": {"name": "Wells Fargo 600", "region": "minneapolis", "skyway_hours": "", "opening_hours": "Mo-Th 05:00-23:30; Fr 05:00-01:00; Sa,Su 05:00-00:30; PH off"}}, {"type": "Feature", "geometry": {"type": "Point", "coordinates": [-93.26061129570007, 44.97675821613474]}, "properties": {"name": "Edition Apartments 640", "region": "minneapolis", "skyway_hours": "", "opening_hours": ""}}, {"type": "Feature", "geometry": {"type": "Point", "coordinates": [-93.26170295476913, 44.97556286210063]}, "properties": {"name": "Millwright Building", "region": "minneapolis", "skyway_hours": "", "opening_hours": ""}}, {"type": "Feature", "geometry": {"type": "Point", "coordinates": [-93.26199531555176, 44.97589300750053]}, "properties": {"name": "Wells Fargo 550", "region": "minneapolis", "skyway_hours": "", "opening_hours": "Mo-Th 05:00-23:30; Fr 05:00-01:00; Sa,Su 05:00-00:30; PH off"}}, {"type": "Feature", "geometry": {"type": "Point", "coordinates": [-93.26031625270844, 44.97607136191197]}, "properties": {"name": "Radisson RED Minneapolis Downtown", "region": "minneapolis", "skyway_hours": "", "opening_hours": ""}}, {"type": "Feature", "geometry": {"type": "Point", "coordinates": [-93.26235473155975, 44.97601254290394]}, "properties": {"name": "Edition Apartments 510", "region": "minneapolis", "skyway_hours": "", "opening_hours": ""}}, {"type": "Feature", "geometry": {"type": "Point", "coordinates": [-93.2629206776619, 44.97531809913174]}, "properties": {"name": "Jerry Haaf Memorial Garage", "region": "minneapolis", "skyway_hours": "", "opening_hours": "24/7"}}, {"type": "Feature", "geometry": {"type": "Point", "coordinates": [-93.26195240020752, 44.978426019620436]}, "properties": {"name": "Juvenile Justice Center", "region": "minneapolis", "skyway_hours": "", "opening_hours": ""}}, {"type": "Feature", "geometry": {"type": "Point", "coordinates": [-93.26187193393707, 44.964460149608385]}, "properties": {"name": "Purple Building", "region": "minneapolis", "skyway_hours": "", "opening_hours": ""}}, {"type": "Feature", "geometry": {"type": "Point", "coordinates": [-93.26231449842453, 44.96522300270107]}, "properties": {"name": "Red Building", "region": "minneapolis", "skyway_hours": "", "opening_hours": ""}}, {"type": "Feature", "geometry": {"type": "Point", "coordinates": [-93.2574650645256, 44.96379976931919]}, "properties": {"name": "US Bank Stadium", "region": "minneapolis", "skyway_hours": "", "opening_hours": ""}}, {"type": "Feature", "geometry": {"type": "Point", "coordinates": [-93.26319426298141, 44.966240140158]}, "properties": {"name": "Ambulatory Outpatient Specialty Center", "region": "minneapolis", "skyway_hours": "", "opening_hours": ""}}, {"type": "Feature", "geometry": {"type": "Point", "coordinates": [-93.26143473386765, 44.96562909862604]}, "properties": {"name": "Orange Building", "region": "minneapolis", "skyway_hours": "", "opening_hours": ""}}]}