{"type": "FeatureCollection", "features": [{"type": "Feature", "properties": {"id": 1157798038, "name": "Hope Avenue Twin Cities", "color": "#9B59B6"}, "geometry": {"type": "Point", "coordinates": [-93.3036661, 44.9934565]}}, {"type": "Feature", "properties": {"id": 1157783780, "name": "Oak Park Center", "color": "#50B86C"}, "geometry": {"type": "Point", "coordinates": [-93.3024189, 44.9810386]}}, {"type": "Feature", "properties": {"id": 987862897, "name": "eyebobs Eyewear", "color": "#9B59B6"}, "geometry": {"type": "Point", "coordinates": [-93.2988676, 44.9880637]}}, {"type": "Feature", "properties": {"id": 987862895, "name": "Coin Clean Laundry", "color": "#2ECC71"}, "geometry": {"type": "Point", "coordinates": [-93.2996964, 44.9725043]}}, {"type": "Feature", "properties": {"id": 987862897, "name": "eyebobs Eyewear", "color": "#9B59B6"}, "geometry": {"type": "Point", "coordinates": [-93.2988676, 44.9725214]}}, {"type": "Feature", "properties": {"id": 987774268, "name": "Deco 265 Apartments", "color": "#E91E63"}, "geometry": {"type": "Point", "coordinates": [-93.2977304, 44.9733695]}}, {"type": "Feature", "properties": {"id": 1213167745, "name": "Linden Yard", "color": "#9B59B6"}, "geometry": {"type": "Point", "coordinates": [-93.3017805, 44.9671795]}}, {"type": "Feature", "properties": {"id": 43606037, "name": "St. Paul's Episcopal Church", "color": "#E91E63"}, "geometry": {"type": "Point", "coordinates": [-93.3028829, 44.9582597]}}, {"type": "Feature", "properties": {"id": 88444151, "name": "Osman Cleaners", "color": "#E91E63"}, "geometry": {"type": "Point", "coordinates": [-93.2958019, 44.9645968]}}, {"type": "Feature", "properties": {"id": 88444168, "name": "Nico's Taco and Tequila Bar", "color": "#2ECC71"}, "geometry": {"type": "Point", "coordinates": [-93.2962659, 44.9494695]}}, {"type": "Feature", "properties": {"id": 153793174, "name": "Mozaic", "color": "#9B59B6"}, "geometry": {"type": "Point", "coordinates": [-93.2973576, 44.956392]}}, {"type": "Feature", "properties": {"id": 28550768, "name": "Fire Station 4", "color": "#3498DB"}, "geometry": {"type": "Point", "coordinates": [-93.2871357, 44.9945719]}}, {"type": "Feature", "properties": {"id": 35704397, "name": "Phyllis Wheatley Community Center", "color": "#E67E22"}, "geometry": {"type": "Point", "coordinates": [-93.2958421, 44.9808925]}}, {"type": "Feature", "properties": {"id": 240869839, "name": "Minnesota Glass Association", "color": "#3498DB"}, "geometry": {"type": "Point", "coordinates": [-93.2942033, 44.972842]}}, {"type": "Feature", "properties": {"id": 101142650, "name": "Hirshfield's Design Resource Showroom", "color": "#E67E22"}, "geometry": {"type": "Point", "coordinates": [-93.2885385, 44.9741645]}}, {"type": "Feature", "properties": {"id": 43346043, "name": "Dunwoody College of Technology", "color": "#1ABC9C"}, "geometry": {"type": "Point", "coordinates": [-93.2901371, 44.9800805]}}, {"type": "Feature", "properties": {"id": 92796968, "name": "Parade Ice Garden", "color": "#3498DB"}, "geometry": {"type": "Point", "coordinates": [-93.2952279, 44.9665817]}}, {"type": "Feature", "properties": {"id": 207188063, "name": "Flatpak in the Garden", "color": "#3498DB"}, "geometry": {"type": "Point", "coordinates": [-93.2900861, 44.9675818]}}, {"type": "Feature", "properties": {"id": 505566029, "name": "Vue Apartment Homes", "color": "#2ECC71"}, "geometry": {"type": "Point", "coordinates": [-93.2851911, 44.9701797]}}, {"type": "Feature", "properties": {"id": 88446367, "name": "The Belmont Apartments", "color": "#E67E22"}, "geometry": {"type": "Point", "coordinates": [-93.2921755, 44.9587133]}}, {"type": "Feature", "properties": {"id": 61910682, "name": "Ella Baker Elementary", "color": "#4A90D9"}, "geometry": {"type": "Point", "coordinates": [-93.2951769, 44.9502838]}}, {"type": "Feature", "properties": {"id": 63060192, "name": "Midtown Lofts", "color": "#F39C12"}, "geometry": {"type": "Point", "coordinates": [-93.2915291, 44.9555986]}}, {"type": "Feature", "properties": {"id": 1216920710, "name": "North Loop Ramp", "color": "#F39C12"}, "geometry": {"type": "Point", "coordinates": [-93.2824337, 44.9946098]}}, {"type": "Feature", "properties": {"id": 1346894624, "name": "The Foundry", "color": "#2ECC71"}, "geometry": {"type": "Point", "coordinates": [-93.2837963, 44.9812245]}}, {"type": "Feature", "properties": {"id": 1002173617, "name": "Viridium Apartments", "color": "#4A90D9"}, "geometry": {"type": "Point", "coordinates": [-93.279022, 44.9814901]}}, {"type": "Feature", "properties": {"id": 900175940, "name": "Element Minneapolis Downtown", "color": "#50B86C"}, "geometry": {"type": "Point", "coordinates": [-93.2793546, 44.9845142]}}, {"type": "Feature", "properties": {"id": 45500029, "name": "Kickernick Building", "color": "#1ABC9C"}, "geometry": {"type": "Point", "coordinates": [-93.27373, 44.9876406]}}, {"type": "Feature", "properties": {"id": 30477624, "name": "Butler North", "color": "#50B86C"}, "geometry": {"type": "Point", "coordinates": [-93.2743442, 44.972565]}}, {"type": "Feature", "properties": {"id": 89061935, "name": "Pheoll", "color": "#4A90D9"}, "geometry": {"type": "Point", "coordinates": [-93.2830024, 44.9766045]}}, {"type": "Feature", "properties": {"id": 45680508, "name": "Ackerberg Science Center", "color": "#E74C3C"}, "geometry": {"type": "Point", "coordinates": [-93.2820582, 44.9793842]}}, {"type": "Feature", "properties": {"id": 63821095, "name": "Yale Place Apartments", "color": "#50B86C"}, "geometry": {"type": "Point", "coordinates": [-93.2797837, 44.9800236]}}, {"type": "Feature", "properties": {"id": 45680522, "name": "Pizza Hut", "color": "#2ECC71"}, "geometry": {"type": "Point", "coordinates": [-93.279089, 44.9779896]}}, {"type": "Feature", "properties": {"id": 119004736, "name": "Artistry on 10th Apartments", "color": "#E91E63"}, "geometry": {"type": "Point", "coordinates": [-93.273856, 44.9797978]}}, {"type": "Feature", "properties": {"id": 119004546, "name": "ALLiiANCE", "color": "#9B59B6"}, "geometry": {"type": "Point", "coordinates": [-93.2850543, 44.9705155]}}, {"type": "Feature", "properties": {"id": 89061932, "name": "Kopp Hall", "color": "#1ABC9C"}, "geometry": {"type": "Point", "coordinates": [-93.2841986, 44.9649953]}}, {"type": "Feature", "properties": {"id": 207766023, "name": "Loring Community Arts Center", "color": "#4A90D9"}, "geometry": {"type": "Point", "coordinates": [-93.2827395, 44.9684642]}}, {"type": "Feature", "properties": {"id": 119004359, "name": "Lotus Restaurant Minneapolis", "color": "#E91E63"}, "geometry": {"type": "Point", "coordinates": [-93.2800385, 44.9676539]}}, {"type": "Feature", "properties": {"id": 92810624, "name": "LPM Apartments", "color": "#4A90D9"}, "geometry": {"type": "Point", "coordinates": [-93.2799795, 44.9683731]}}, {"type": "Feature", "properties": {"id": 111367432, "name": "Abbott Apartments", "color": "#E91E63"}, "geometry": {"type": "Point", "coordinates": [-93.2761225, 44.9718268]}}, {"type": "Feature", "properties": {"id": 119004467, "name": "CARE Counseling", "color": "#9B59B6"}, "geometry": {"type": "Point", "coordinates": [-93.2811302, 44.9588252]}}, {"type": "Feature", "properties": {"id": 111367425, "name": "Gladstone", "color": "#E67E22"}, "geometry": {"type": "Point", "coordinates": [-93.2769755, 44.9576504]}}, {"type": "Feature", "properties": {"id": 122609101, "name": "Waldorf School", "color": "#4A90D9"}, "geometry": {"type": "Point", "coordinates": [-93.2784024, 44.9624426]}}, {"type": "Feature", "properties": {"id": 38898412, "name": "Minneapolis Institute of Art", "color": "#4A90D9"}, "geometry": {"type": "Point", "coordinates": [-93.2741645, 44.9634352]}}, {"type": "Feature", "properties": {"id": 119006114, "name": "Minola", "color": "#4A90D9"}, "geometry": {"type": "Point", "coordinates": [-93.2737568, 44.9581002]}}, {"type": "Feature", "properties": {"id": 171580125, "name": "Lyndy Apartments", "color": "#F39C12"}, "geometry": {"type": "Point", "coordinates": [-93.284947, 44.9563674]}}, {"type": "Feature", "properties": {"id": 746039458, "name": "Minnesota Opera", "color": "#3498DB"}, "geometry": {"type": "Point", "coordinates": [-93.2740116, 44.9946079]}}, {"type": "Feature", "properties": {"id": 78061942, "name": "Free Spirit Building", "color": "#E74C3C"}, "geometry": {"type": "Point", "coordinates": [-93.2741162, 44.9822547]}}, {"type": "Feature", "properties": {"id": 723284482, "name": "The Office Pub & Grill", "color": "#F39C12"}, "geometry": {"type": "Point", "coordinates": [-93.2731962, 44.9839071]}}, {"type": "Feature", "properties": {"id": 89080635, "name": "Monte Carlo", "color": "#E74C3C"}, "geometry": {"type": "Point", "coordinates": [-93.2717076, 44.9837667]}}, {"type": "Feature", "properties": {"id": 45758910, "name": "Pixel Farm", "color": "#1ABC9C"}, "geometry": {"type": "Point", "coordinates": [-93.2702458, 44.9850776]}}, {"type": "Feature", "properties": {"id": 45416007, "name": "River Towers B", "color": "#E67E22"}, "geometry": {"type": "Point", "coordinates": [-93.2657745, 44.9853375]}}, {"type": "Feature", "properties": {"id": 45680548, "name": "Gluek's Restaurant & Bar", "color": "#3498DB"}, "geometry": {"type": "Point", "coordinates": [-93.274017, 44.9734795]}}, {"type": "Feature", "properties": {"id": 1334632160, "name": "Murray's", "color": "#E67E22"}, "geometry": {"type": "Point", "coordinates": [-93.2723862, 44.9743125]}}, {"type": "Feature", "properties": {"id": 1462073358, "name": "Deluxe Plaza", "color": "#1ABC9C"}, "geometry": {"type": "Point", "coordinates": [-93.2713348, 44.9784241]}}, {"type": "Feature", "properties": {"id": 156912886, "name": "Old Republic Title Building", "color": "#2ECC71"}, "geometry": {"type": "Point", "coordinates": [-93.2675958, 44.9744757]}}, {"type": "Feature", "properties": {"id": 461219677, "name": "TriTech Office Center", "color": "#E91E63"}, "geometry": {"type": "Point", "coordinates": [-93.2663593, 44.9743466]}}, {"type": "Feature", "properties": {"id": 62006959, "name": "Cortland Mill District", "color": "#F39C12"}, "geometry": {"type": "Point", "coordinates": [-93.2637039, 44.9735497]}}, {"type": "Feature", "properties": {"id": 115559604, "name": "Capella Tower", "color": "#4A90D9"}, "geometry": {"type": "Point", "coordinates": [-93.2682475, 44.9768341]}}, {"type": "Feature", "properties": {"id": 122709399, "name": "Sexton Urban Lofts", "color": "#3498DB"}, "geometry": {"type": "Point", "coordinates": [-93.264817, 44.9796309]}}, {"type": "Feature", "properties": {"id": 28490639, "name": "Hilton Minneapolis", "color": "#F39C12"}, "geometry": {"type": "Point", "coordinates": [-93.2730541, 44.9647277]}}, {"type": "Feature", "properties": {"id": 28490086, "name": "Century Plaza", "color": "#3498DB"}, "geometry": {"type": "Point", "coordinates": [-93.2709673, 44.9669707]}}, {"type": "Feature", "properties": {"id": 613598899, "name": "HQ Apartments", "color": "#E74C3C"}, "geometry": {"type": "Point", "coordinates": [-93.26556, 44.9652344]}}, {"type": "Feature", "properties": {"id": 122709355, "name": "Slater Square", "color": "#1ABC9C"}, "geometry": {"type": "Point", "coordinates": [-93.2673651, 44.9690961]}}, {"type": "Feature", "properties": {"id": 122795240, "name": "Alliance Apartments", "color": "#2ECC71"}, "geometry": {"type": "Point", "coordinates": [-93.2640418, 44.9704776]}}, {"type": "Feature", "properties": {"id": 123284290, "name": "Life Center", "color": "#3498DB"}, "geometry": {"type": "Point", "coordinates": [-93.2656646, 44.9726694]}}, {"type": "Feature", "properties": {"id": 111367397, "name": "Northcraft", "color": "#E74C3C"}, "geometry": {"type": "Point", "coordinates": [-93.2730836, 44.9569444]}}, {"type": "Feature", "properties": {"id": 128197732, "name": "Fair Oaks Building D", "color": "#3498DB"}, "geometry": {"type": "Point", "coordinates": [-93.2718337, 44.9640919]}}, {"type": "Feature", "properties": {"id": 123284290, "name": "Life Center", "color": "#3498DB"}, "geometry": {"type": "Point", "coordinates": [-93.2656646, 44.9571228]}}, {"type": "Feature", "properties": {"id": 66470621, "name": "Wells Fargo Home Mortgage", "color": "#E67E22"}, "geometry": {"type": "Point", "coordinates": [-93.2703665, 44.9523053]}}, {"type": "Feature", "properties": {"id": 128828193, "name": "Ukrainian American Community Center", "color": "#3498DB"}, "geometry": {"type": "Point", "coordinates": [-93.2611826, 44.9934679]}}, {"type": "Feature", "properties": {"id": 39707455, "name": "Smokeless Vapor Lounge", "color": "#E74C3C"}, "geometry": {"type": "Point", "coordinates": [-93.2524574, 44.9949285]}}, {"type": "Feature", "properties": {"id": 125437516, "name": "320", "color": "#E74C3C"}, "geometry": {"type": "Point", "coordinates": [-93.2553864, 44.9803139]}}, {"type": "Feature", "properties": {"id": 39771719, "name": "Nicollet Island Pavilion", "color": "#F39C12"}, "geometry": {"type": "Point", "coordinates": [-93.2601821, 44.9838008]}}, {"type": "Feature", "properties": {"id": 916054575, "name": "Abiitan Mill City", "color": "#E67E22"}, "geometry": {"type": "Point", "coordinates": [-93.2611048, 44.9724568]}}, {"type": "Feature", "properties": {"id": 407613510, "name": "Wells Fargo 550", "color": "#F39C12"}, "geometry": {"type": "Point", "coordinates": [-93.2619953, 44.9759613]}}, {"type": "Feature", "properties": {"id": 81049125, "name": "Canopy by Hilton Minneapolis Mill District", "color": "#F39C12"}, "geometry": {"type": "Point", "coordinates": [-93.2587713, 44.9761966]}}, {"type": "Feature", "properties": {"id": 1223123289, "name": "4th & Park", "color": "#4A90D9"}, "geometry": {"type": "Point", "coordinates": [-93.2595411, 44.9772269]}}, {"type": "Feature", "properties": {"id": 122795297, "name": "Center for Youth and Leadership", "color": "#50B86C"}, "geometry": {"type": "Point", "coordinates": [-93.2629555, 44.968635]}}, {"type": "Feature", "properties": {"id": 63619637, "name": "Parkside Professional Building", "color": "#4A90D9"}, "geometry": {"type": "Point", "coordinates": [-93.2615903, 44.9670258]}}, {"type": "Feature", "properties": {"id": 39239957, "name": "Carlson Hall", "color": "#2ECC71"}, "geometry": {"type": "Point", "coordinates": [-93.2603592, 44.9691303]}}, {"type": "Feature", "properties": {"id": 59706843, "name": "Social Security Administration", "color": "#E74C3C"}, "geometry": {"type": "Point", "coordinates": [-93.2621589, 44.9569558]}}, {"type": "Feature", "properties": {"id": 111391456, "name": "Augustana Lutheran Church", "color": "#E74C3C"}, "geometry": {"type": "Point", "coordinates": [-93.2585219, 44.9580907]}}, {"type": "Feature", "properties": {"id": 125841214, "name": "Children's Specialty Center", "color": "#E67E22"}, "geometry": {"type": "Point", "coordinates": [-93.2630548, 44.9497029]}}, {"type": "Feature", "properties": {"id": 39707682, "name": "White Castle", "color": "#E74C3C"}, "geometry": {"type": "Point", "coordinates": [-93.2521006, 44.9942191]}}, {"type": "Feature", "properties": {"id": 92914631, "name": "Electric Machinery Co. Inc.", "color": "#3498DB"}, "geometry": {"type": "Point", "coordinates": [-93.2492173, 44.9920358]}}, {"type": "Feature", "properties": {"id": 93677581, "name": "Lit Happens", "color": "#50B86C"}, "geometry": {"type": "Point", "coordinates": [-93.2505691, 44.9946478]}}, {"type": "Feature", "properties": {"id": 62334790, "name": "Marcy Elementary", "color": "#4A90D9"}, "geometry": {"type": "Point", "coordinates": [-93.2498851, 44.9815755]}}, {"type": "Feature", "properties": {"id": 65817928, "name": "Flour Sack Flats", "color": "#1ABC9C"}, "geometry": {"type": "Point", "coordinates": [-93.2486272, 44.9850909]}}, {"type": "Feature", "properties": {"id": 62334789, "name": "University Inn", "color": "#E74C3C"}, "geometry": {"type": "Point", "coordinates": [-93.2414013, 44.985328]}}, {"type": "Feature", "properties": {"id": 56157615, "name": "Minnesota Tech Center", "color": "#4A90D9"}, "geometry": {"type": "Point", "coordinates": [-93.2520443, 44.9776045]}}, {"type": "Feature", "properties": {"id": 56157623, "name": "1200 Washington Avenue", "color": "#4A90D9"}, "geometry": {"type": "Point", "coordinates": [-93.250773, 44.9779327]}}, {"type": "Feature", "properties": {"id": 39765251, "name": "Seven Corners Apartments", "color": "#4A90D9"}, "geometry": {"type": "Point", "coordinates": [-93.2467014, 44.9781737]}}, {"type": "Feature", "properties": {"id": 255808949, "name": "West Bank Skyway", "color": "#E91E63"}, "geometry": {"type": "Point", "coordinates": [-93.2433593, 44.9804638]}}, {"type": "Feature", "properties": {"id": 39717785, "name": "Studios at Seven Corners", "color": "#F39C12"}, "geometry": {"type": "Point", "coordinates": [-93.2490966, 44.9647296]}}, {"type": "Feature", "properties": {"id": 88039967, "name": "Mixed Blood Theatre", "color": "#3498DB"}, "geometry": {"type": "Point", "coordinates": [-93.2493648, 44.9665931]}}, {"type": "Feature", "properties": {"id": 29124119, "name": "Keefer Court Bakery and Caf\u00e9", "color": "#E67E22"}, "geometry": {"type": "Point", "coordinates": [-93.2475409, 44.9668265]}}, {"type": "Feature", "properties": {"id": 29124071, "name": "Humphrey School of Public Affairs", "color": "#E91E63"}, "geometry": {"type": "Point", "coordinates": [-93.2446736, 44.9659631]}}, {"type": "Feature", "properties": {"id": 255808949, "name": "West Bank Skyway", "color": "#E91E63"}, "geometry": {"type": "Point", "coordinates": [-93.2433593, 44.9649194]}}, {"type": "Feature", "properties": {"id": 197734081, "name": "Bi Di Gain Dash Anwebi Elder Housing - East Building", "color": "#9B59B6"}, "geometry": {"type": "Point", "coordinates": [-93.2521409, 44.9630481]}}, {"type": "Feature", "properties": {"id": 171309391, "name": "CUHCC Trailers", "color": "#E74C3C"}, "geometry": {"type": "Point", "coordinates": [-93.2512906, 44.9597305]}}, {"type": "Feature", "properties": {"id": 108177385, "name": "Takoda Institute of Higher Education", "color": "#2ECC71"}, "geometry": {"type": "Point", "coordinates": [-93.2459852, 44.9600114]}}, {"type": "Feature", "properties": {"id": 127372527, "name": "Rising Cedar Apartments", "color": "#4A90D9"}, "geometry": {"type": "Point", "coordinates": [-93.2443839, 44.9623762]}}, {"type": "Feature", "properties": {"id": 150808255, "name": "Scan Air Filter", "color": "#9B59B6"}, "geometry": {"type": "Point", "coordinates": [-93.2520041, 44.9502838]}}, {"type": "Feature", "properties": {"id": 704713754, "name": "Spectrum Apartments & Townhomes", "color": "#3498DB"}, "geometry": {"type": "Point", "coordinates": [-93.239572, 44.9959661]}}, {"type": "Feature", "properties": {"id": 88014932, "name": "Sigma Alpha Mu Fraternity", "color": "#4A90D9"}, "geometry": {"type": "Point", "coordinates": [-93.2411358, 44.9849258]}}, {"type": "Feature", "properties": {"id": 62155105, "name": "Marcy Park Student Housing Co-op", "color": "#E91E63"}, "geometry": {"type": "Point", "coordinates": [-93.2382041, 44.9822699]}}, {"type": "Feature", "properties": {"id": 88014594, "name": "Wales House", "color": "#E67E22"}, "geometry": {"type": "Point", "coordinates": [-93.2382417, 44.9853091]}}, {"type": "Feature", "properties": {"id": 88040175, "name": "Sanford Hall", "color": "#3498DB"}, "geometry": {"type": "Point", "coordinates": [-93.2403955, 44.9880068]}}, {"type": "Feature", "properties": {"id": 62155124, "name": "Varsity Apartments", "color": "#3498DB"}, "geometry": {"type": "Point", "coordinates": [-93.2317266, 44.9846185]}}, {"type": "Feature", "properties": {"id": 88040175, "name": "Sanford Hall", "color": "#3498DB"}, "geometry": {"type": "Point", "coordinates": [-93.2403955, 44.9724644]}}, {"type": "Feature", "properties": {"id": 40760467, "name": "Nicholson Hall", "color": "#1ABC9C"}, "geometry": {"type": "Point", "coordinates": [-93.2356721, 44.9757659]}}, {"type": "Feature", "properties": {"id": 24039199, "name": "Smith Hall", "color": "#E67E22"}, "geometry": {"type": "Point", "coordinates": [-93.2361898, 44.9784336]}}, {"type": "Feature", "properties": {"id": 126010821, "name": "Delta Chi Fraternity", "color": "#E91E63"}, "geometry": {"type": "Point", "coordinates": [-93.2334459, 44.9743808]}}, {"type": "Feature", "properties": {"id": 51318548, "name": "Williamson Hall", "color": "#3498DB"}, "geometry": {"type": "Point", "coordinates": [-93.2345885, 44.9751568]}}, {"type": "Feature", "properties": {"id": 86133535, "name": "Civil Engineering Building", "color": "#E67E22"}, "geometry": {"type": "Point", "coordinates": [-93.2313591, 44.9767089]}}, {"type": "Feature", "properties": {"id": 255808940, "name": "Middlebrook Hall", "color": "#2ECC71"}, "geometry": {"type": "Point", "coordinates": [-93.2410741, 44.9675989]}}, {"type": "Feature", "properties": {"id": 37184291, "name": "Comstock Hall", "color": "#50B86C"}, "geometry": {"type": "Point", "coordinates": [-93.2368362, 44.9650181]}}, {"type": "Feature", "properties": {"id": 165264375, "name": "St Catherine University (South Bldg)", "color": "#3498DB"}, "geometry": {"type": "Point", "coordinates": [-93.2356158, 44.9698779]}}, {"type": "Feature", "properties": {"id": 289784616, "name": "East River Road Garage", "color": "#F39C12"}, "geometry": {"type": "Point", "coordinates": [-93.2352, 44.9655987]}}, {"type": "Feature", "properties": {"id": 174150700, "name": "University of Minnesota Medical Center East Bank Hospital", "color": "#E74C3C"}, "geometry": {"type": "Point", "coordinates": [-93.2311419, 44.9661737]}}, {"type": "Feature", "properties": {"id": 79290578, "name": "Seward Inc.", "color": "#4A90D9"}, "geometry": {"type": "Point", "coordinates": [-93.2404411, 44.9588746]}}, {"type": "Feature", "properties": {"id": 932224109, "name": "Aurora Charter", "color": "#E74C3C"}, "geometry": {"type": "Point", "coordinates": [-93.2411626, 44.9512423]}}, {"type": "Feature", "properties": {"id": 44255395, "name": "Cub Foods", "color": "#9B59B6"}, "geometry": {"type": "Point", "coordinates": [-93.2357714, 44.9546268]}}, {"type": "Feature", "properties": {"id": 157034038, "name": "Dar Al-Farooq", "color": "#E74C3C"}, "geometry": {"type": "Point", "coordinates": [-93.2288942, 44.9811676]}}, {"type": "Feature", "properties": {"id": 153929655, "name": "Sigma Alpha Epsilon Fraternity", "color": "#9B59B6"}, "geometry": {"type": "Point", "coordinates": [-93.2301226, 44.9755951]}}, {"type": "Feature", "properties": {"id": 38892710, "name": "Centennial Hall", "color": "#F39C12"}, "geometry": {"type": "Point", "coordinates": [-93.2294923, 44.9653634]}}, {"type": "Feature", "properties": {"id": 40760465, "name": "Frontier Hall", "color": "#3498DB"}, "geometry": {"type": "Point", "coordinates": [-93.2280493, 44.9665153]}}, {"type": "Feature", "properties": {"id": 226151790, "name": "Franklin Terrace", "color": "#3498DB"}, "geometry": {"type": "Point", "coordinates": [-93.226743, 44.9587968]}}, {"type": "Feature", "properties": {"id": 1172581336, "name": "The Landing Strip", "color": "#E74C3C"}, "geometry": {"type": "Point", "coordinates": [-93.2287306, 44.9512689]}}]}