{"type": "FeatureCollection", "features": [{"type": "Feature", "geometry": {"type": "Point", "coordinates": [-93.23640778666666, 44.97531998666666]}, "properties": {"id": 23014165, "name": "Walter Library", "color": "#E67E22"}}, {"type": "Feature", "geometry": {"type": "Point", "coordinates": [-93.27600402413795, 44.979588555172406]}, "properties": {"id": 23125943, "name": "Target Center", "color": "#9B59B6"}}, {"type": "Feature", "geometry": {"type": "Point", "coordinates": [-93.26390443157898, 44.983361873684196]}, "properties": {"id": 23125944, "name": "Martin Olav Sabo Post Office", "color": "#1ABC9C"}}, {"type": "Feature", "geometry": {"type": "Point", "coordinates": [-93.23420308214286, 44.97451488571428]}, "properties": {"id": 23158781, "name": "Murphy Hall", "color": "#3498DB"}}, {"type": "Feature", "geometry": {"type": "Point", "coordinates": [-93.23614282608695, 44.97584779565217]}, "properties": {"id": 23158786, "name": "Johnston Hall", "color": "#2ECC71"}}, {"type": "Feature", "geometry": {"type": "Point", "coordinates": [-93.23618869090909, 44.9744794909091]}, "properties": {"id": 24039199, "name": "Smith Hall", "color": "#E67E22"}}, {"type": "Feature", "geometry": {"type": "Point", "coordinates": [-93.22880347777777, 44.97610656111111]}, "properties": {"id": 24108195, "name": "University Avenue Parking Ramp", "color": "#E67E22"}}, {"type": "Feature", "geometry": {"type": "Point", "coordinates": [-93.27418105405407, 44.98299355135135]}, "properties": {"id": 27346543, "name": "4th Street Ramp C", "color": "#F39C12"}}, {"type": "Feature", "geometry": {"type": "Point", "coordinates": [-93.27463712592592, 44.977065592592595]}, "properties": {"id": 27346580, "name": "Park and Shop Ramp", "color": "#9B59B6"}}, {"type": "Feature", "geometry": {"type": "Point", "coordinates": [-93.2736923710526, 44.971587078947366]}, "properties": {"id": 27346594, "name": "Marquette Parking Ramp", "color": "#1ABC9C"}}, {"type": "Feature", "geometry": {"type": "Point", "coordinates": [-93.27514999999998, 44.97888804]}, "properties": {"id": 27346710, "name": "Loews Minneapolis Hotel", "color": "#E91E63"}}, {"type": "Feature", "geometry": {"type": "Point", "coordinates": [-93.27485156250002, 44.978897987500005]}, "properties": {"id": 27346712, "name": "Mayo Clinic Square", "color": "#4A90D9"}}, {"type": "Feature", "geometry": {"type": "Point", "coordinates": [-93.27344904285714, 44.977640928571425]}, "properties": {"id": 27346715, "name": "Minneapolis Marriott City Center", "color": "#F39C12"}}, {"type": "Feature", "geometry": {"type": "Point", "coordinates": [-93.27291602857142, 44.97775765357142]}, "properties": {"id": 27346720, "name": "City Center", "color": "#E67E22"}}, {"type": "Feature", "geometry": {"type": "Point", "coordinates": [-93.27286865714287, 44.97816324285714]}, "properties": {"id": 27346721, "name": "33 South Sixth", "color": "#2ECC71"}}, {"type": "Feature", "geometry": {"type": "Point", "coordinates": [-93.27089804583333, 44.97981636666666]}, "properties": {"id": 27346722, "name": "Midtown Parking Ramp", "color": "#4A90D9"}}, {"type": "Feature", "geometry": {"type": "Point", "coordinates": [-93.26110571666669, 44.97391147777777]}, "properties": {"id": 27346730, "name": "Hennepin County Sheriff", "color": "#1ABC9C"}}, {"type": "Feature", "geometry": {"type": "Point", "coordinates": [-93.26408197692308, 44.97436472307691]}, "properties": {"id": 27346744, "name": "Thrivent Corporate Center", "color": "#9B59B6"}}, {"type": "Feature", "geometry": {"type": "Point", "coordinates": [-93.2627236375, 44.9735699875]}, "properties": {"id": 27346755, "name": "HCMC Purple Parking Ramp", "color": "#4A90D9"}}, {"type": "Feature", "geometry": {"type": "Point", "coordinates": [-93.238286925, 44.9787470375]}, "properties": {"id": 27440619, "name": "Pattee Hall", "color": "#E91E63"}}, {"type": "Feature", "geometry": {"type": "Point", "coordinates": [-93.2380041631579, 44.97825631052631]}, "properties": {"id": 27440623, "name": "Shevlin Hall", "color": "#E91E63"}}, {"type": "Feature", "geometry": {"type": "Point", "coordinates": [-93.22796365081965, 44.972004295081966]}, "properties": {"id": 27440851, "name": "Territorial Hall", "color": "#4A90D9"}}, {"type": "Feature", "geometry": {"type": "Point", "coordinates": [-93.26668300689654, 44.97585027241379]}, "properties": {"id": 27518018, "name": "Hennepin County Government Center", "color": "#1ABC9C"}}, {"type": "Feature", "geometry": {"type": "Point", "coordinates": [-93.26359977692309, 44.975137930769236]}, "properties": {"id": 27518542, "name": "Minneapolis Armory", "color": "#3498DB"}}, {"type": "Feature", "geometry": {"type": "Point", "coordinates": [-93.2718553, 44.971134219999996]}, "properties": {"id": 28490028, "name": "Holiday Inn Express Minneapolis Downtown Convention Center", "color": "#3498DB"}}, {"type": "Feature", "geometry": {"type": "Point", "coordinates": [-93.27275265454546, 44.971399509090915]}, "properties": {"id": 28490035, "name": "Hotel Ivy, a Luxury Collection Hotel, Minneapolis", "color": "#1ABC9C"}}, {"type": "Feature", "geometry": {"type": "Point", "coordinates": [-93.27096708181817, 44.97039837272727]}, "properties": {"id": 28490086, "name": "Century Plaza", "color": "#3498DB"}}, {"type": "Feature", "geometry": {"type": "Point", "coordinates": [-93.27169875, 44.972081683333336]}, "properties": {"id": 28490447, "name": "Leamington Municipal Ramp", "color": "#F39C12"}}, {"type": "Feature", "geometry": {"type": "Point", "coordinates": [-93.26953579090909, 44.97247370909092]}, "properties": {"id": 28490454, "name": "Ameriprise Financial Headquarters", "color": "#1ABC9C"}}, {"type": "Feature", "geometry": {"type": "Point", "coordinates": [-93.26885813181819, 44.973444809090914]}, "properties": {"id": 28490490, "name": "Energy Center Ramp", "color": "#50B86C"}}, {"type": "Feature", "geometry": {"type": "Point", "coordinates": [-93.27305387586208, 44.97264088965517]}, "properties": {"id": 28490639, "name": "Hilton Minneapolis", "color": "#F39C12"}}, {"type": "Feature", "geometry": {"type": "Point", "coordinates": [-93.27203644210528, 44.97358053157895]}, "properties": {"id": 28525210, "name": "Forum", "color": "#E67E22"}}, {"type": "Feature", "geometry": {"type": "Point", "coordinates": [-93.27236983999998, 44.97392831]}, "properties": {"id": 28525211, "name": "AT&T Tower", "color": "#4A90D9"}}, {"type": "Feature", "geometry": {"type": "Point", "coordinates": [-93.27169541111111, 44.974442]}, "properties": {"id": 28525360, "name": "Foshay Tower", "color": "#F39C12"}}, {"type": "Feature", "geometry": {"type": "Point", "coordinates": [-93.2871359875, 44.989423425]}, "properties": {"id": 28550768, "name": "Fire Station 4", "color": "#3498DB"}}, {"type": "Feature", "geometry": {"type": "Point", "coordinates": [-93.23463218387094, 44.9758547483871]}, "properties": {"id": 28989390, "name": "Morrill Hall", "color": "#E67E22"}}, {"type": "Feature", "geometry": {"type": "Point", "coordinates": [-93.23433868333333, 44.97535092777777]}, "properties": {"id": 28989549, "name": "Tate Laboratory of Physics", "color": "#E91E63"}}, {"type": "Feature", "geometry": {"type": "Point", "coordinates": [-93.24187159285715, 44.96682075714285]}, "properties": {"id": 28989859, "name": "Lindell Library", "color": "#50B86C"}}, {"type": "Feature", "geometry": {"type": "Point", "coordinates": [-93.27521776666667, 44.98032943333334]}, "properties": {"id": 29060521, "name": "Butler Square", "color": "#E74C3C"}}, {"type": "Feature", "geometry": {"type": "Point", "coordinates": [-93.2774836, 44.98364803333333]}, "properties": {"id": 29060527, "name": "Ford Center", "color": "#E91E63"}}, {"type": "Feature", "geometry": {"type": "Point", "coordinates": [-93.24601462727273, 44.97065758181818]}, "properties": {"id": 29060575, "name": "19th Avenue Ramp", "color": "#F39C12"}}, {"type": "Feature", "geometry": {"type": "Point", "coordinates": [-93.2435502125, 44.97091585]}, "properties": {"id": 29060603, "name": "O. Meredith Wilson Library", "color": "#F39C12"}}, {"type": "Feature", "geometry": {"type": "Point", "coordinates": [-93.23115424999999, 44.974254207692304]}, "properties": {"id": 29060634, "name": "Washington Avenue Parking Ramp", "color": "#9B59B6"}}, {"type": "Feature", "geometry": {"type": "Point", "coordinates": [-93.26954144, 44.97732257]}, "properties": {"id": 29080581, "name": "Rand Tower Hotel", "color": "#3498DB"}}, {"type": "Feature", "geometry": {"type": "Point", "coordinates": [-93.26841075, 44.97823795952381]}, "properties": {"id": 29080597, "name": "Fifth Street Towers", "color": "#E91E63"}}, {"type": "Feature", "geometry": {"type": "Point", "coordinates": [-93.23438009285714, 44.97395165714285]}, "properties": {"id": 29120161, "name": "Ford Hall", "color": "#2ECC71"}}, {"type": "Feature", "geometry": {"type": "Point", "coordinates": [-93.23320276756756, 44.97646276756757]}, "properties": {"id": 29120176, "name": "Ralph Rapson Hall", "color": "#3498DB"}}, {"type": "Feature", "geometry": {"type": "Point", "coordinates": [-93.23440193999997, 44.9769479142857]}, "properties": {"id": 29120193, "name": "Pillsbury Hall", "color": "#E91E63"}}, {"type": "Feature", "geometry": {"type": "Point", "coordinates": [-93.23417066666667, 44.97640213333333]}, "properties": {"id": 29120544, "name": "Church Street Garage", "color": "#3498DB"}}, {"type": "Feature", "geometry": {"type": "Point", "coordinates": [-93.24213117692307, 44.966208599999995]}, "properties": {"id": 29123568, "name": "Science Hall", "color": "#F39C12"}}, {"type": "Feature", "geometry": {"type": "Point", "coordinates": [-93.2419606, 44.96634377272727]}, "properties": {"id": 29123594, "name": "Sverdrup Hall", "color": "#2ECC71"}}, {"type": "Feature", "geometry": {"type": "Point", "coordinates": [-93.24467618611112, 44.970377644444426]}, "properties": {"id": 29124068, "name": "Carlson School of Management", "color": "#E67E22"}}, {"type": "Feature", "geometry": {"type": "Point", "coordinates": [-93.2446740724138, 44.97140581896551]}, "properties": {"id": 29124071, "name": "Humphrey School of Public Affairs", "color": "#E91E63"}}, {"type": "Feature", "geometry": {"type": "Point", "coordinates": [-93.24754036, 44.97054238]}, "properties": {"id": 29124119, "name": "Keefer Court Bakery and Caf\u00e9", "color": "#E67E22"}}, {"type": "Feature", "geometry": {"type": "Point", "coordinates": [-93.23274341538462, 44.974494523076935]}, "properties": {"id": 29335936, "name": "Kenneth H Keller Hall", "color": "#50B86C"}}, {"type": "Feature", "geometry": {"type": "Point", "coordinates": [-93.23281747272728, 44.97397505]}, "properties": {"id": 29335941, "name": "Amundson Hall", "color": "#1ABC9C"}}, {"type": "Feature", "geometry": {"type": "Point", "coordinates": [-93.22950406296295, 44.974333755555556]}, "properties": {"id": 30056630, "name": "Graduate by Hilton Minneapolis", "color": "#F39C12"}}, {"type": "Feature", "geometry": {"type": "Point", "coordinates": [-93.23533643333336, 44.97278586666667]}, "properties": {"id": 30056874, "name": "Coffman Memorial Union", "color": "#1ABC9C"}}, {"type": "Feature", "geometry": {"type": "Point", "coordinates": [-93.2757427942857, 44.981047071428556]}, "properties": {"id": 30062750, "name": "5th Street Ramp B", "color": "#E91E63"}}, {"type": "Feature", "geometry": {"type": "Point", "coordinates": [-93.27174701428571, 44.97964777857142]}, "properties": {"id": 30263208, "name": "Lumber Exchange", "color": "#2ECC71"}}, {"type": "Feature", "geometry": {"type": "Point", "coordinates": [-93.27434337999999, 44.98034786]}, "properties": {"id": 30477624, "name": "Butler North", "color": "#50B86C"}}, {"type": "Feature", "geometry": {"type": "Point", "coordinates": [-93.23628042, 44.97394348]}, "properties": {"id": 30875878, "name": "Kolthoff Hall", "color": "#1ABC9C"}}, {"type": "Feature", "geometry": {"type": "Point", "coordinates": [-93.24236307894735, 44.971960947368416]}, "properties": {"id": 30875938, "name": "Anderson Hall", "color": "#4A90D9"}}, {"type": "Feature", "geometry": {"type": "Point", "coordinates": [-93.2427216, 44.9681037]}, "properties": {"id": 30875980, "name": "Jimmy John's", "color": "#50B86C"}}, {"type": "Feature", "geometry": {"type": "Point", "coordinates": [-93.24282372352941, 44.96878797647058]}, "properties": {"id": 30875983, "name": "Barbara Barker Center For Dance", "color": "#50B86C"}}, {"type": "Feature", "geometry": {"type": "Point", "coordinates": [-93.22958283214287, 44.978547732142864]}, "properties": {"id": 32014036, "name": "Ridder Arena & Baseline Tennis Facility", "color": "#1ABC9C"}}, {"type": "Feature", "geometry": {"type": "Point", "coordinates": [-93.23222189999998, 44.96999818]}, "properties": {"id": 35091096, "name": "Boathouse", "color": "#E67E22"}}, {"type": "Feature", "geometry": {"type": "Point", "coordinates": [-93.23720618493154, 44.973096175342455]}, "properties": {"id": 35091113, "name": "Weisman Art Museum", "color": "#1ABC9C"}}, {"type": "Feature", "geometry": {"type": "Point", "coordinates": [-93.22953133333334, 44.972896166666665]}, "properties": {"id": 35218850, "name": "Patient & Visitor Parking Ramp", "color": "#E67E22"}}, {"type": "Feature", "geometry": {"type": "Point", "coordinates": [-93.29510075555557, 44.98765063333333]}, "properties": {"id": 35704386, "name": "Bethune Elementary", "color": "#3498DB"}}, {"type": "Feature", "geometry": {"type": "Point", "coordinates": [-93.29584088333333, 44.987563533333336]}, "properties": {"id": 35704397, "name": "Phyllis Wheatley Community Center", "color": "#E67E22"}}, {"type": "Feature", "geometry": {"type": "Point", "coordinates": [-93.23683503111113, 44.97235091333333]}, "properties": {"id": 37184291, "name": "Comstock Hall", "color": "#50B86C"}}, {"type": "Feature", "geometry": {"type": "Point", "coordinates": [-93.23421083928572, 44.97315482142857]}, "properties": {"id": 37184292, "name": "Nils Hasselmo Hall", "color": "#9B59B6"}}, {"type": "Feature", "geometry": {"type": "Point", "coordinates": [-93.24834704000001, 44.981882272]}, "properties": {"id": 38400151, "name": "Stone Arch Apartments", "color": "#E67E22"}}, {"type": "Feature", "geometry": {"type": "Point", "coordinates": [-93.25425410000001, 44.98564077857144]}, "properties": {"id": 38400157, "name": "St. Anthony Falls Ramp", "color": "#3498DB"}}, {"type": "Feature", "geometry": {"type": "Point", "coordinates": [-93.23692985714287, 44.98187947142857]}, "properties": {"id": 38400938, "name": "Chateau Student Housing Co-op", "color": "#E67E22"}}, {"type": "Feature", "geometry": {"type": "Point", "coordinates": [-93.2281984875, 44.97680570000001]}, "properties": {"id": 38400986, "name": "Williams Arena", "color": "#F39C12"}}, {"type": "Feature", "geometry": {"type": "Point", "coordinates": [-93.23136866666665, 44.9717637]}, "properties": {"id": 38892389, "name": "Diehl Hall", "color": "#2ECC71"}}, {"type": "Feature", "geometry": {"type": "Point", "coordinates": [-93.22949236304348, 44.97200490326089]}, "properties": {"id": 38892710, "name": "Centennial Hall", "color": "#F39C12"}}, {"type": "Feature", "geometry": {"type": "Point", "coordinates": [-93.24169876923075, 44.987225676923075]}, "properties": {"id": 38898331, "name": "The Breton", "color": "#3498DB"}}, {"type": "Feature", "geometry": {"type": "Point", "coordinates": [-93.23471404444443, 44.97899472222222]}, "properties": {"id": 38898382, "name": "Dinkydome", "color": "#E67E22"}}, {"type": "Feature", "geometry": {"type": "Point", "coordinates": [-93.27416350000001, 44.95838727142857]}, "properties": {"id": 38898412, "name": "Minneapolis Institute of Art", "color": "#4A90D9"}}, {"type": "Feature", "geometry": {"type": "Point", "coordinates": [-93.24265954444445, 44.98492451111112]}, "properties": {"id": 38931878, "name": "First Congregational Church", "color": "#2ECC71"}}, {"type": "Feature", "geometry": {"type": "Point", "coordinates": [-93.23195957916666, 44.9794664]}, "properties": {"id": 39153154, "name": "4th Street Parking Ramp", "color": "#1ABC9C"}}, {"type": "Feature", "geometry": {"type": "Point", "coordinates": [-93.23757345483871, 44.977733964516126]}, "properties": {"id": 39186095, "name": "Burton Hall", "color": "#9B59B6"}}, {"type": "Feature", "geometry": {"type": "Point", "coordinates": [-93.23971948571429, 44.97860931428571]}, "properties": {"id": 39186402, "name": "Education Sciences Building", "color": "#F39C12"}}, {"type": "Feature", "geometry": {"type": "Point", "coordinates": [-93.243598925, 44.97294456666666]}, "properties": {"id": 39186682, "name": "Willey Hall", "color": "#E74C3C"}}, {"type": "Feature", "geometry": {"type": "Point", "coordinates": [-93.24304784615387, 44.973193265384616]}, "properties": {"id": 39186750, "name": "Elmer L. Andersen Library", "color": "#F39C12"}}, {"type": "Feature", "geometry": {"type": "Point", "coordinates": [-93.23603307407411, 44.97186807407408]}, "properties": {"id": 39186994, "name": "Mark G Yudof Hall", "color": "#4A90D9"}}, {"type": "Feature", "geometry": {"type": "Point", "coordinates": [-93.23346936666665, 44.974551624444445]}, "properties": {"id": 39187076, "name": "Lind Hall", "color": "#9B59B6"}}, {"type": "Feature", "geometry": {"type": "Point", "coordinates": [-93.23237319729729, 44.97721869189189]}, "properties": {"id": 39187644, "name": "Armory", "color": "#E67E22"}}, {"type": "Feature", "geometry": {"type": "Point", "coordinates": [-93.23118559999999, 44.976757818181824]}, "properties": {"id": 39187676, "name": "Field House", "color": "#2ECC71"}}, {"type": "Feature", "geometry": {"type": "Point", "coordinates": [-93.26035800666665, 44.9682391]}, "properties": {"id": 39239957, "name": "Carlson Hall", "color": "#2ECC71"}}, {"type": "Feature", "geometry": {"type": "Point", "coordinates": [-93.28629055714285, 44.973197714285725]}, "properties": {"id": 39422725, "name": "Basilica of Saint Mary", "color": "#E91E63"}}, {"type": "Feature", "geometry": {"type": "Point", "coordinates": [-93.28972093125, 44.969542137500014]}, "properties": {"id": 39422887, "name": "Cowles Pavilion and Regis Promenade", "color": "#E67E22"}}, {"type": "Feature", "geometry": {"type": "Point", "coordinates": [-93.25646623846153, 44.98891091538462]}, "properties": {"id": 39707446, "name": "West Photo", "color": "#4A90D9"}}, {"type": "Feature", "geometry": {"type": "Point", "coordinates": [-93.25293724000001, 44.988847480000004]}, "properties": {"id": 39707454, "name": "Ray J's American Grill", "color": "#9B59B6"}}, {"type": "Feature", "geometry": {"type": "Point", "coordinates": [-93.25245876, 44.98906708]}, "properties": {"id": 39707455, "name": "Smokeless Vapor Lounge", "color": "#E74C3C"}}, {"type": "Feature", "geometry": {"type": "Point", "coordinates": [-93.25353232, 44.987885340000005]}, "properties": {"id": 39707464, "name": "Aveda Institute", "color": "#2ECC71"}}, {"type": "Feature", "geometry": {"type": "Point", "coordinates": [-93.25429443333331, 44.98696138333333]}, "properties": {"id": 39707468, "name": "United Labor Centre", "color": "#9B59B6"}}, {"type": "Feature", "geometry": {"type": "Point", "coordinates": [-93.25515023499999, 44.984830134999996]}, "properties": {"id": 39707475, "name": "St. Anthony Main", "color": "#4A90D9"}}, {"type": "Feature", "geometry": {"type": "Point", "coordinates": [-93.25210148, 44.98977666]}, "properties": {"id": 39707682, "name": "White Castle", "color": "#E74C3C"}}, {"type": "Feature", "geometry": {"type": "Point", "coordinates": [-93.24803819000002, 44.9734509]}, "properties": {"id": 39713006, "name": "The Southern Theater", "color": "#50B86C"}}, {"type": "Feature", "geometry": {"type": "Point", "coordinates": [-93.24735266666669, 44.97403240833333]}, "properties": {"id": 39713011, "name": "Seven Corners Parking Ramp", "color": "#9B59B6"}}, {"type": "Feature", "geometry": {"type": "Point", "coordinates": [-93.24689285714287, 44.97250004285714]}, "properties": {"id": 39716995, "name": "Theatre in the Round", "color": "#1ABC9C"}}, {"type": "Feature", "geometry": {"type": "Point", "coordinates": [-93.24909558, 44.97263913]}, "properties": {"id": 39717785, "name": "Studios at Seven Corners", "color": "#F39C12"}}, {"type": "Feature", "geometry": {"type": "Point", "coordinates": [-93.23195844375003, 44.982118799999995]}, "properties": {"id": 39753765, "name": "Gibson/Nagurski Football Practice Facility", "color": "#50B86C"}}, {"type": "Feature", "geometry": {"type": "Point", "coordinates": [-93.2467003631579, 44.97473915789474]}, "properties": {"id": 39765251, "name": "Seven Corners Apartments", "color": "#4A90D9"}}, {"type": "Feature", "geometry": {"type": "Point", "coordinates": [-93.25107254666668, 44.973913126666666]}, "properties": {"id": 39765357, "name": "Bobby and Steve's Auto World", "color": "#E91E63"}}, {"type": "Feature", "geometry": {"type": "Point", "coordinates": [-93.2371646, 44.978958405]}, "properties": {"id": 39769844, "name": "Peik Hall", "color": "#4A90D9"}}, {"type": "Feature", "geometry": {"type": "Point", "coordinates": [-93.26018095833335, 44.98465555833334]}, "properties": {"id": 39771719, "name": "Nicollet Island Pavilion", "color": "#F39C12"}}, {"type": "Feature", "geometry": {"type": "Point", "coordinates": [-93.24471976, 44.97585826000001]}, "properties": {"id": 40713535, "name": "Riverview Tower", "color": "#2ECC71"}}, {"type": "Feature", "geometry": {"type": "Point", "coordinates": [-93.22941455540543, 44.970916404054044]}, "properties": {"id": 40760464, "name": "Pioneer Hall", "color": "#E74C3C"}}, {"type": "Feature", "geometry": {"type": "Point", "coordinates": [-93.22804821746033, 44.97085321428571]}, "properties": {"id": 40760465, "name": "Frontier Hall", "color": "#3498DB"}}, {"type": "Feature", "geometry": {"type": "Point", "coordinates": [-93.23785877073169, 44.97686915121952]}, "properties": {"id": 40760466, "name": "Elliott Hall", "color": "#E67E22"}}, {"type": "Feature", "geometry": {"type": "Point", "coordinates": [-93.23567157187502, 44.97714666562499]}, "properties": {"id": 40760467, "name": "Nicholson Hall", "color": "#1ABC9C"}}, {"type": "Feature", "geometry": {"type": "Point", "coordinates": [-93.23706926333331, 44.976838650000005]}, "properties": {"id": 40760469, "name": "Scott Hall", "color": "#F39C12"}}, {"type": "Feature", "geometry": {"type": "Point", "coordinates": [-93.23327927499999, 44.977785582142864]}, "properties": {"id": 40760470, "name": "10 Church Street Building", "color": "#9B59B6"}}, {"type": "Feature", "geometry": {"type": "Point", "coordinates": [-93.25907983749998, 44.97574880625]}, "properties": {"id": 40774167, "name": "Mills Fleet Farm Parking Garage", "color": "#E67E22"}}, {"type": "Feature", "geometry": {"type": "Point", "coordinates": [-93.26143765, 44.977249275]}, "properties": {"id": 40933926, "name": "Millwright Building", "color": "#E91E63"}}, {"type": "Feature", "geometry": {"type": "Point", "coordinates": [-93.23233654545456, 44.97580562727273]}, "properties": {"id": 41405167, "name": "Shepherd Laboratories", "color": "#3498DB"}}, {"type": "Feature", "geometry": {"type": "Point", "coordinates": [-93.27604031249999, 44.97827386875]}, "properties": {"id": 41414391, "name": "First Avenue", "color": "#E74C3C"}}, {"type": "Feature", "geometry": {"type": "Point", "coordinates": [-93.23154400833333, 44.97300599166666]}, "properties": {"id": 41424184, "name": "Moos Health Sciences Tower", "color": "#2ECC71"}}, {"type": "Feature", "geometry": {"type": "Point", "coordinates": [-93.23157201818181, 44.97234535000001]}, "properties": {"id": 41424185, "name": "Phillips-Wangensteen Building", "color": "#E91E63"}}, {"type": "Feature", "geometry": {"type": "Point", "coordinates": [-93.23346436829267, 44.9730742292683]}, "properties": {"id": 41424187, "name": "Jackson Hall", "color": "#4A90D9"}}, {"type": "Feature", "geometry": {"type": "Point", "coordinates": [-93.27204058571428, 44.98047041428571]}, "properties": {"id": 41763757, "name": "Gay 90's", "color": "#3498DB"}}, {"type": "Feature", "geometry": {"type": "Point", "coordinates": [-93.26700215555555, 44.98533695740742]}, "properties": {"id": 41763759, "name": "The Federal Reserve Bank of Minneapolis", "color": "#E74C3C"}}, {"type": "Feature", "geometry": {"type": "Point", "coordinates": [-93.26728442499999, 44.9778447875]}, "properties": {"id": 41763761, "name": "McKnight Building", "color": "#1ABC9C"}}, {"type": "Feature", "geometry": {"type": "Point", "coordinates": [-93.27090679, 44.97690774]}, "properties": {"id": 41763762, "name": "Wells Fargo Center", "color": "#2ECC71"}}, {"type": "Feature", "geometry": {"type": "Point", "coordinates": [-93.2778676521739, 44.97653287391305]}, "properties": {"id": 41763764, "name": "Orpheum Theatre", "color": "#E91E63"}}, {"type": "Feature", "geometry": {"type": "Point", "coordinates": [-93.25305918000001, 44.983806900000005]}, "properties": {"id": 41763926, "name": "Pillsbury A Mill", "color": "#50B86C"}}, {"type": "Feature", "geometry": {"type": "Point", "coordinates": [-93.22796605199999, 44.97802919066666]}, "properties": {"id": 41784584, "name": "3M Arena", "color": "#3498DB"}}, {"type": "Feature", "geometry": {"type": "Point", "coordinates": [-93.22897846, 44.97541630666667]}, "properties": {"id": 41784585, "name": "Freeman Aquatics Center", "color": "#3498DB"}}, {"type": "Feature", "geometry": {"type": "Point", "coordinates": [-93.27415222285714, 44.969503523571426]}, "properties": {"id": 42837791, "name": "Minneapolis Convention Center", "color": "#4A90D9"}}, {"type": "Feature", "geometry": {"type": "Point", "coordinates": [-93.27104546666665, 44.969469700000005]}, "properties": {"id": 43346042, "name": "Central Lutheran Church", "color": "#2ECC71"}}, {"type": "Feature", "geometry": {"type": "Point", "coordinates": [-93.29013789600002, 44.972833366]}, "properties": {"id": 43346043, "name": "Dunwoody College of Technology", "color": "#1ABC9C"}}, {"type": "Feature", "geometry": {"type": "Point", "coordinates": [-93.28752896081085, 44.966357595945944]}, "properties": {"id": 43606019, "name": "Hennepin Avenue United Methodist Church", "color": "#E67E22"}}, {"type": "Feature", "geometry": {"type": "Point", "coordinates": [-93.3028837235294, 44.96356335882353]}, "properties": {"id": 43606037, "name": "St. Paul's Episcopal Church", "color": "#E91E63"}}, {"type": "Feature", "geometry": {"type": "Point", "coordinates": [-93.27494599999999, 44.97220862647059]}, "properties": {"id": 43607930, "name": "Orchestra Hall", "color": "#3498DB"}}, {"type": "Feature", "geometry": {"type": "Point", "coordinates": [-93.26633186400001, 44.973710456000006]}, "properties": {"id": 44164774, "name": "Centre Village", "color": "#E67E22"}}, {"type": "Feature", "geometry": {"type": "Point", "coordinates": [-93.26545717777778, 44.97471708888888]}, "properties": {"id": 44164775, "name": "Sora Apartments", "color": "#2ECC71"}}, {"type": "Feature", "geometry": {"type": "Point", "coordinates": [-93.2657401375, 44.9812218625]}, "properties": {"id": 44164776, "name": "100 Washington Square", "color": "#50B86C"}}, {"type": "Feature", "geometry": {"type": "Point", "coordinates": [-93.23577229166666, 44.95164739166666]}, "properties": {"id": 44255395, "name": "Cub Foods", "color": "#9B59B6"}}, {"type": "Feature", "geometry": {"type": "Point", "coordinates": [-93.23699373333335, 44.94953494666667]}, "properties": {"id": 44414329, "name": "Target", "color": "#E67E22"}}, {"type": "Feature", "geometry": {"type": "Point", "coordinates": [-93.2700744857143, 44.97381260714285]}, "properties": {"id": 44684851, "name": "Two22", "color": "#3498DB"}}, {"type": "Feature", "geometry": {"type": "Point", "coordinates": [-93.27357972857143, 44.974499542857146]}, "properties": {"id": 44684854, "name": "Young-Quinlan Building", "color": "#4A90D9"}}, {"type": "Feature", "geometry": {"type": "Point", "coordinates": [-93.26462493076926, 44.97827468846154]}, "properties": {"id": 44684856, "name": "United States Courthouse and Federal Building", "color": "#F39C12"}}, {"type": "Feature", "geometry": {"type": "Point", "coordinates": [-93.27677298, 44.9732765]}, "properties": {"id": 45066437, "name": "DoubleTree Suites by Hilton Hotel Minneapolis", "color": "#F39C12"}}, {"type": "Feature", "geometry": {"type": "Point", "coordinates": [-93.24826731666667, 44.97577943333332]}, "properties": {"id": 45415769, "name": "West Bank Office Building", "color": "#1ABC9C"}}, {"type": "Feature", "geometry": {"type": "Point", "coordinates": [-93.29902376206897, 44.951140582758626]}, "properties": {"id": 45415944, "name": "Former Uptown YWCA", "color": "#3498DB"}}, {"type": "Feature", "geometry": {"type": "Point", "coordinates": [-93.26658702857142, 44.983121142857144]}, "properties": {"id": 45416006, "name": "River Towers A", "color": "#4A90D9"}}, {"type": "Feature", "geometry": {"type": "Point", "coordinates": [-93.26577522857143, 44.98311878571428]}, "properties": {"id": 45416007, "name": "River Towers B", "color": "#E67E22"}}, {"type": "Feature", "geometry": {"type": "Point", "coordinates": [-93.26761708571429, 44.97430584285714]}, "properties": {"id": 45447294, "name": "SPS Tower", "color": "#4A90D9"}}, {"type": "Feature", "geometry": {"type": "Point", "coordinates": [-93.27955857142855, 44.988965300000004]}, "properties": {"id": 45448492, "name": "801 Washington Lofts", "color": "#4A90D9"}}, {"type": "Feature", "geometry": {"type": "Point", "coordinates": [-93.28004861111111, 44.98871171111111]}, "properties": {"id": 45448503, "name": "Third North", "color": "#50B86C"}}, {"type": "Feature", "geometry": {"type": "Point", "coordinates": [-93.27696387647059, 44.990990223529415]}, "properties": {"id": 45448529, "name": "Star Tribune Heritage Center", "color": "#E67E22"}}, {"type": "Feature", "geometry": {"type": "Point", "coordinates": [-93.27126392, 44.987352619999996]}, "properties": {"id": 45449528, "name": "Riverwalk Lofts", "color": "#E74C3C"}}, {"type": "Feature", "geometry": {"type": "Point", "coordinates": [-93.27176606, 44.98772614]}, "properties": {"id": 45449534, "name": "Lindsay Lofts", "color": "#E74C3C"}}, {"type": "Feature", "geometry": {"type": "Point", "coordinates": [-93.27774662499999, 44.9887842375]}, "properties": {"id": 45449546, "name": "ElseWarehouse", "color": "#E74C3C"}}, {"type": "Feature", "geometry": {"type": "Point", "coordinates": [-93.27710748333334, 44.98649128333333]}, "properties": {"id": 45449596, "name": "The Hall Lofts", "color": "#4A90D9"}}, {"type": "Feature", "geometry": {"type": "Point", "coordinates": [-93.2669894, 44.97923605]}, "properties": {"id": 45452108, "name": "330 South Second", "color": "#E91E63"}}, {"type": "Feature", "geometry": {"type": "Point", "coordinates": [-93.26611457999999, 44.97920466]}, "properties": {"id": 45452110, "name": "City of Lakes Building", "color": "#1ABC9C"}}, {"type": "Feature", "geometry": {"type": "Point", "coordinates": [-93.26364128333334, 44.977563800000006]}, "properties": {"id": 45452111, "name": "Grain Exchange Main Building", "color": "#50B86C"}}, {"type": "Feature", "geometry": {"type": "Point", "coordinates": [-93.26480154444444, 44.9756548]}, "properties": {"id": 45452112, "name": "Government Center Garage", "color": "#4A90D9"}}, {"type": "Feature", "geometry": {"type": "Point", "coordinates": [-93.27566321, 44.97368009000001]}, "properties": {"id": 45452119, "name": "Target Plaza", "color": "#3498DB"}}, {"type": "Feature", "geometry": {"type": "Point", "coordinates": [-93.27633585454547, 44.975057299999996]}, "properties": {"id": 45452121, "name": "Opus Hall", "color": "#50B86C"}}, {"type": "Feature", "geometry": {"type": "Point", "coordinates": [-93.28887234857143, 44.97987678285714]}, "properties": {"id": 45498285, "name": "International Market Square", "color": "#E74C3C"}}, {"type": "Feature", "geometry": {"type": "Point", "coordinates": [-93.28213214230769, 44.98139591923078]}, "properties": {"id": 45498291, "name": "Public Works Royalston Maintenance Facility", "color": "#9B59B6"}}, {"type": "Feature", "geometry": {"type": "Point", "coordinates": [-93.28194795555554, 44.97742466666667]}, "properties": {"id": 45498304, "name": "Warner", "color": "#9B59B6"}}, {"type": "Feature", "geometry": {"type": "Point", "coordinates": [-93.28000762499995, 44.98322116607142]}, "properties": {"id": 45498322, "name": "Hennepin Energy Recovery Center", "color": "#E74C3C"}}, {"type": "Feature", "geometry": {"type": "Point", "coordinates": [-93.29241475500001, 44.97843381]}, "properties": {"id": 45499069, "name": "Minneapolis Community and Technical College Transportation Center", "color": "#4A90D9"}}, {"type": "Feature", "geometry": {"type": "Point", "coordinates": [-93.27402592857142, 44.98114174285713]}, "properties": {"id": 45500009, "name": "Wyman Partridge Building", "color": "#E91E63"}}, {"type": "Feature", "geometry": {"type": "Point", "coordinates": [-93.27306961250001, 44.9803880625]}, "properties": {"id": 45500016, "name": "Rosenthal Interiors", "color": "#E91E63"}}, {"type": "Feature", "geometry": {"type": "Point", "coordinates": [-93.27255978000001, 44.98236908]}, "properties": {"id": 45500020, "name": "Colwell Building", "color": "#E74C3C"}}, {"type": "Feature", "geometry": {"type": "Point", "coordinates": [-93.27372946666667, 44.98081514999999]}, "properties": {"id": 45500029, "name": "Kickernick Building", "color": "#1ABC9C"}}, {"type": "Feature", "geometry": {"type": "Point", "coordinates": [-93.2710948846154, 44.98115584615384]}, "properties": {"id": 45500033, "name": "Atrium Apartments", "color": "#4A90D9"}}, {"type": "Feature", "geometry": {"type": "Point", "coordinates": [-93.26756901428574, 44.98075442857144]}, "properties": {"id": 45500036, "name": "Marquette Plaza", "color": "#E74C3C"}}, {"type": "Feature", "geometry": {"type": "Point", "coordinates": [-93.27087562857143, 44.98209318571429]}, "properties": {"id": 45500045, "name": "McKesson", "color": "#50B86C"}}, {"type": "Feature", "geometry": {"type": "Point", "coordinates": [-93.26793652666667, 44.98376895333333]}, "properties": {"id": 45500095, "name": "Hennepin Avenue Parking Ramp", "color": "#4A90D9"}}, {"type": "Feature", "geometry": {"type": "Point", "coordinates": [-93.24785440714287, 44.97628272857143]}, "properties": {"id": 45528479, "name": "West Bank Office Building Parking Ramp", "color": "#F39C12"}}, {"type": "Feature", "geometry": {"type": "Point", "coordinates": [-93.2886825452381, 44.96816156904762]}, "properties": {"id": 45530842, "name": "Walker Art Center", "color": "#4A90D9"}}, {"type": "Feature", "geometry": {"type": "Point", "coordinates": [-93.27038007272728, 44.97530451818182]}, "properties": {"id": 45581646, "name": "730 Building", "color": "#50B86C"}}, {"type": "Feature", "geometry": {"type": "Point", "coordinates": [-93.27000876666666, 44.97643986666666]}, "properties": {"id": 45581647, "name": "Northstar West", "color": "#3498DB"}}, {"type": "Feature", "geometry": {"type": "Point", "coordinates": [-93.26907365769229, 44.97511996923076]}, "properties": {"id": 45581649, "name": "Ameriprise Financial Center", "color": "#1ABC9C"}}, {"type": "Feature", "geometry": {"type": "Point", "coordinates": [-93.27646744545454, 44.9725499090909]}, "properties": {"id": 45581663, "name": "Downtown YWCA", "color": "#3498DB"}}, {"type": "Feature", "geometry": {"type": "Point", "coordinates": [-93.25962797142857, 44.97713515714286]}, "properties": {"id": 45581681, "name": "American Trio Lofts", "color": "#2ECC71"}}, {"type": "Feature", "geometry": {"type": "Point", "coordinates": [-93.25958522857145, 44.98040871428572]}, "properties": {"id": 45581682, "name": "Crown Roller Mill", "color": "#9B59B6"}}, {"type": "Feature", "geometry": {"type": "Point", "coordinates": [-93.26212641000001, 44.98147662000001]}, "properties": {"id": 45581683, "name": "Barrel House", "color": "#4A90D9"}}, {"type": "Feature", "geometry": {"type": "Point", "coordinates": [-93.2876029888889, 44.96124724444444]}, "properties": {"id": 45581776, "name": "Wedge Co-Op", "color": "#F39C12"}}, {"type": "Feature", "geometry": {"type": "Point", "coordinates": [-93.29290297272725, 44.961193754545455]}, "properties": {"id": 45582411, "name": "MidWestOne Bank", "color": "#1ABC9C"}}, {"type": "Feature", "geometry": {"type": "Point", "coordinates": [-93.28171619230768, 44.97250484615384]}, "properties": {"id": 45680440, "name": "The Haverhill", "color": "#50B86C"}}, {"type": "Feature", "geometry": {"type": "Point", "coordinates": [-93.28064511111113, 44.974353944444445]}, "properties": {"id": 45680453, "name": "Lunds & Byerlys", "color": "#9B59B6"}}, {"type": "Feature", "geometry": {"type": "Point", "coordinates": [-93.27790897857143, 44.974964771428574]}, "properties": {"id": 45680466, "name": "Eagle Brook Church", "color": "#E74C3C"}}, {"type": "Feature", "geometry": {"type": "Point", "coordinates": [-93.28118165454545, 44.972530690909096]}, "properties": {"id": 45680496, "name": "Loring Park Apartments", "color": "#E74C3C"}}, {"type": "Feature", "geometry": {"type": "Point", "coordinates": [-93.28205745000001, 44.97352929166667]}, "properties": {"id": 45680508, "name": "Ackerberg Science Center", "color": "#E74C3C"}}, {"type": "Feature", "geometry": {"type": "Point", "coordinates": [-93.27979778, 44.97478864]}, "properties": {"id": 45680519, "name": "Butcher & the Boar", "color": "#E67E22"}}, {"type": "Feature", "geometry": {"type": "Point", "coordinates": [-93.27908827142858, 44.97492345714285]}, "properties": {"id": 45680522, "name": "Pizza Hut", "color": "#2ECC71"}}, {"type": "Feature", "geometry": {"type": "Point", "coordinates": [-93.27723910909093, 44.97538766818181]}, "properties": {"id": 45680534, "name": "FAIR School for Arts", "color": "#E67E22"}}, {"type": "Feature", "geometry": {"type": "Point", "coordinates": [-93.27549712857142, 44.9780043]}, "properties": {"id": 45680540, "name": "Pantages Theater", "color": "#1ABC9C"}}, {"type": "Feature", "geometry": {"type": "Point", "coordinates": [-93.27661193333334, 44.97864755]}, "properties": {"id": 45680543, "name": "Lamoreaux Building", "color": "#F39C12"}}, {"type": "Feature", "geometry": {"type": "Point", "coordinates": [-93.27401761249999, 44.97943392499999]}, "properties": {"id": 45680548, "name": "Gluek's Restaurant & Bar", "color": "#3498DB"}}, {"type": "Feature", "geometry": {"type": "Point", "coordinates": [-93.28001005, 44.975264370000005]}, "properties": {"id": 45680564, "name": "Hennepin Crossing Apartments", "color": "#2ECC71"}}, {"type": "Feature", "geometry": {"type": "Point", "coordinates": [-93.27657663333332, 44.97576373333333]}, "properties": {"id": 45680567, "name": "The Art Institutes international Minnesota", "color": "#E74C3C"}}, {"type": "Feature", "geometry": {"type": "Point", "coordinates": [-93.27024693999999, 44.98337796]}, "properties": {"id": 45758910, "name": "Pixel Farm", "color": "#1ABC9C"}}, {"type": "Feature", "geometry": {"type": "Point", "coordinates": [-93.27251743333333, 44.98494713333334]}, "properties": {"id": 45758924, "name": "Hewing Hotel", "color": "#E91E63"}}, {"type": "Feature", "geometry": {"type": "Point", "coordinates": [-93.27157993333333, 44.986442166666656]}, "properties": {"id": 45758926, "name": "Rock Island Lofts", "color": "#E91E63"}}, {"type": "Feature", "geometry": {"type": "Point", "coordinates": [-93.26854453333333, 44.98453108333333]}, "properties": {"id": 45758930, "name": "Aria", "color": "#1ABC9C"}}, {"type": "Feature", "geometry": {"type": "Point", "coordinates": [-93.27252365999999, 44.98318734]}, "properties": {"id": 45758932, "name": "Harmony Lofts", "color": "#1ABC9C"}}, {"type": "Feature", "geometry": {"type": "Point", "coordinates": [-93.27115778000001, 44.984725000000005]}, "properties": {"id": 45758933, "name": "Northwestern Building", "color": "#E91E63"}}, {"type": "Feature", "geometry": {"type": "Point", "coordinates": [-93.27216315714286, 44.98527011428572]}, "properties": {"id": 45758934, "name": "Colonial Warehouse", "color": "#9B59B6"}}, {"type": "Feature", "geometry": {"type": "Point", "coordinates": [-93.28033352564101, 44.968321153846155]}, "properties": {"id": 45979247, "name": "Emerson Elementary", "color": "#E67E22"}}, {"type": "Feature", "geometry": {"type": "Point", "coordinates": [-93.23697698070178, 44.9674674491228]}, "properties": {"id": 46145188, "name": "East Building", "color": "#50B86C"}}, {"type": "Feature", "geometry": {"type": "Point", "coordinates": [-93.23039927777778, 44.96244147777779]}, "properties": {"id": 46145189, "name": "Seward Community Co-op", "color": "#3498DB"}}, {"type": "Feature", "geometry": {"type": "Point", "coordinates": [-93.27392880000001, 44.98432858333333]}, "properties": {"id": 46499469, "name": "Union Plaza", "color": "#E67E22"}}, {"type": "Feature", "geometry": {"type": "Point", "coordinates": [-93.236190425, 44.973387249999995]}, "properties": {"id": 46702671, "name": "The Cube", "color": "#3498DB"}}, {"type": "Feature", "geometry": {"type": "Point", "coordinates": [-93.28227596, 44.988558059999995]}, "properties": {"id": 46967480, "name": "Salvation Army", "color": "#2ECC71"}}, {"type": "Feature", "geometry": {"type": "Point", "coordinates": [-93.24661801333333, 44.98175656666667]}, "properties": {"id": 47560024, "name": "Metal-Matic", "color": "#E74C3C"}}, {"type": "Feature", "geometry": {"type": "Point", "coordinates": [-93.2438136888889, 44.9858253888889]}, "properties": {"id": 47560035, "name": "CenturyLink", "color": "#9B59B6"}}, {"type": "Feature", "geometry": {"type": "Point", "coordinates": [-93.24950545833336, 44.98089019166665]}, "properties": {"id": 47566424, "name": "Southeast Steam Plant", "color": "#1ABC9C"}}, {"type": "Feature", "geometry": {"type": "Point", "coordinates": [-93.24366286249997, 44.966026774999996]}, "properties": {"id": 48814861, "name": "Luther Hall", "color": "#E74C3C"}}, {"type": "Feature", "geometry": {"type": "Point", "coordinates": [-93.2430727, 44.96566956153846]}, "properties": {"id": 48814876, "name": "Andersen Hall", "color": "#4A90D9"}}, {"type": "Feature", "geometry": {"type": "Point", "coordinates": [-93.24199592222222, 44.96561663333333]}, "properties": {"id": 48814901, "name": "Old Main", "color": "#3498DB"}}, {"type": "Feature", "geometry": {"type": "Point", "coordinates": [-93.24158297000001, 44.96565905999999]}, "properties": {"id": 48814919, "name": "Christensen Center", "color": "#E67E22"}}, {"type": "Feature", "geometry": {"type": "Point", "coordinates": [-93.2643043117647, 44.980724970588234]}, "properties": {"id": 48816163, "name": "Federal Building", "color": "#E67E22"}}, {"type": "Feature", "geometry": {"type": "Point", "coordinates": [-93.2613283857143, 44.97979635714285]}, "properties": {"id": 48816164, "name": "Residence Inn at the Depot", "color": "#E67E22"}}, {"type": "Feature", "geometry": {"type": "Point", "coordinates": [-93.27237537058824, 44.986820347058824]}, "properties": {"id": 48816524, "name": "Heritage Landing", "color": "#E91E63"}}, {"type": "Feature", "geometry": {"type": "Point", "coordinates": [-93.23678505384616, 44.963053853846155]}, "properties": {"id": 50717601, "name": "Northern Clay Center", "color": "#9B59B6"}}, {"type": "Feature", "geometry": {"type": "Point", "coordinates": [-93.25232424117645, 44.96306022352942]}, "properties": {"id": 50717603, "name": "Minnesota American Indian Center", "color": "#4A90D9"}}, {"type": "Feature", "geometry": {"type": "Point", "coordinates": [-93.25186247407407, 44.96196751111111]}, "properties": {"id": 50717607, "name": "Community-University Health Care Center", "color": "#1ABC9C"}}, {"type": "Feature", "geometry": {"type": "Point", "coordinates": [-93.23449207105264, 44.97828038157895]}, "properties": {"id": 51318520, "name": "Folwell Hall", "color": "#3498DB"}}, {"type": "Feature", "geometry": {"type": "Point", "coordinates": [-93.23527935454545, 44.97794840909091]}, "properties": {"id": 51318542, "name": "Jones Hall", "color": "#9B59B6"}}, {"type": "Feature", "geometry": {"type": "Point", "coordinates": [-93.23458883157896, 44.97775621578946]}, "properties": {"id": 51318548, "name": "Williamson Hall", "color": "#3498DB"}}, {"type": "Feature", "geometry": {"type": "Point", "coordinates": [-93.2680075625, 44.9720284375]}, "properties": {"id": 52324168, "name": "Smith Brothers Service, Inc.", "color": "#E91E63"}}, {"type": "Feature", "geometry": {"type": "Point", "coordinates": [-93.25204323999999, 44.97530838]}, "properties": {"id": 56157615, "name": "Minnesota Tech Center", "color": "#4A90D9"}}, {"type": "Feature", "geometry": {"type": "Point", "coordinates": [-93.25163543333333, 44.97562061666667]}, "properties": {"id": 56157616, "name": "Forte on the Park", "color": "#E91E63"}}, {"type": "Feature", "geometry": {"type": "Point", "coordinates": [-93.25729582499999, 44.97136664166667]}, "properties": {"id": 56157617, "name": "1010 Metrodome Square", "color": "#E67E22"}}, {"type": "Feature", "geometry": {"type": "Point", "coordinates": [-93.2536959, 44.97380076249999]}, "properties": {"id": 56157619, "name": "Valspar", "color": "#E74C3C"}}, {"type": "Feature", "geometry": {"type": "Point", "coordinates": [-93.24871854705883, 44.97731404117647]}, "properties": {"id": 56157620, "name": "American Red Cross", "color": "#F39C12"}}, {"type": "Feature", "geometry": {"type": "Point", "coordinates": [-93.250772425, 44.97497958333333]}, "properties": {"id": 56157623, "name": "1200 Washington Avenue", "color": "#4A90D9"}}, {"type": "Feature", "geometry": {"type": "Point", "coordinates": [-93.2527365, 44.99111446]}, "properties": {"id": 56760426, "name": "Banks Building", "color": "#E67E22"}}, {"type": "Feature", "geometry": {"type": "Point", "coordinates": [-93.24130194, 44.98805328]}, "properties": {"id": 58055588, "name": "The Endurance", "color": "#3498DB"}}, {"type": "Feature", "geometry": {"type": "Point", "coordinates": [-93.26215984, 44.964865939999996]}, "properties": {"id": 59706843, "name": "Social Security Administration", "color": "#E74C3C"}}, {"type": "Feature", "geometry": {"type": "Point", "coordinates": [-93.25534891666666, 44.9623362]}, "properties": {"id": 59706845, "name": "ALDI", "color": "#9B59B6"}}, {"type": "Feature", "geometry": {"type": "Point", "coordinates": [-93.24429015999999, 44.9842169]}, "properties": {"id": 60428795, "name": "The Elysian", "color": "#E67E22"}}, {"type": "Feature", "geometry": {"type": "Point", "coordinates": [-93.26051520000001, 44.976851169999996]}, "properties": {"id": 60613336, "name": "Radisson RED Minneapolis Downtown", "color": "#1ABC9C"}}, {"type": "Feature", "geometry": {"type": "Point", "coordinates": [-93.28671329999999, 44.9669693625]}, "properties": {"id": 60712031, "name": "White Earth Nation", "color": "#1ABC9C"}}, {"type": "Feature", "geometry": {"type": "Point", "coordinates": [-93.28109242000001, 44.96747934]}, "properties": {"id": 60712032, "name": "Sequoia", "color": "#F39C12"}}, {"type": "Feature", "geometry": {"type": "Point", "coordinates": [-93.28123524, 44.966993540000004]}, "properties": {"id": 60712035, "name": "Loring Manor", "color": "#9B59B6"}}, {"type": "Feature", "geometry": {"type": "Point", "coordinates": [-93.28228075555553, 44.96692955555556]}, "properties": {"id": 60712041, "name": "Oak Grove Apartments", "color": "#E74C3C"}}, {"type": "Feature", "geometry": {"type": "Point", "coordinates": [-93.28543948666669, 44.96790519333333]}, "properties": {"id": 60712042, "name": "430 Oak Grove", "color": "#9B59B6"}}, {"type": "Feature", "geometry": {"type": "Point", "coordinates": [-93.28048808000001, 44.96932697999999]}, "properties": {"id": 60712048, "name": "Spruce Place Apartments", "color": "#F39C12"}}, {"type": "Feature", "geometry": {"type": "Point", "coordinates": [-93.28896148571427, 44.97322862857143]}, "properties": {"id": 60770946, "name": "Sisyphus Brewing", "color": "#F39C12"}}, {"type": "Feature", "geometry": {"type": "Point", "coordinates": [-93.29632829999998, 44.9498597]}, "properties": {"id": 61842192, "name": "Mozaic East", "color": "#50B86C"}}, {"type": "Feature", "geometry": {"type": "Point", "coordinates": [-93.29517779090908, 44.95599022727272]}, "properties": {"id": 61910682, "name": "Ella Baker Elementary", "color": "#4A90D9"}}, {"type": "Feature", "geometry": {"type": "Point", "coordinates": [-93.26879223, 44.97749789999999]}, "properties": {"id": 62005000, "name": "Canadian Pacific Plaza", "color": "#9B59B6"}}, {"type": "Feature", "geometry": {"type": "Point", "coordinates": [-93.23901688888888, 44.98012124074074]}, "properties": {"id": 62006958, "name": "Roy Wilkins Hall", "color": "#E91E63"}}, {"type": "Feature", "geometry": {"type": "Point", "coordinates": [-93.26370321666667, 44.979364233333335]}, "properties": {"id": 62006959, "name": "Cortland Mill District", "color": "#F39C12"}}, {"type": "Feature", "geometry": {"type": "Point", "coordinates": [-93.24919526000001, 44.982957580000004]}, "properties": {"id": 62006963, "name": "Stone Arch 2", "color": "#4A90D9"}}, {"type": "Feature", "geometry": {"type": "Point", "coordinates": [-93.26691004444444, 44.97824516666667]}, "properties": {"id": 62006964, "name": "Emery, Autograph Collection", "color": "#F39C12"}}, {"type": "Feature", "geometry": {"type": "Point", "coordinates": [-93.23671992222222, 44.97765146666667]}, "properties": {"id": 62006965, "name": "Eddy Hall", "color": "#3498DB"}}, {"type": "Feature", "geometry": {"type": "Point", "coordinates": [-93.26319028, 44.98077661999999]}, "properties": {"id": 62006968, "name": "Dunn Brothers Coffee", "color": "#9B59B6"}}, {"type": "Feature", "geometry": {"type": "Point", "coordinates": [-93.23887382000001, 44.98069276]}, "properties": {"id": 62006973, "name": "The Church of Jesus Christ of Latter-day Saints", "color": "#E67E22"}}, {"type": "Feature", "geometry": {"type": "Point", "coordinates": [-93.23857864, 44.98578258]}, "properties": {"id": 62155104, "name": "Marcy Park Co-op", "color": "#50B86C"}}, {"type": "Feature", "geometry": {"type": "Point", "coordinates": [-93.23820459999999, 44.986186333333336]}, "properties": {"id": 62155105, "name": "Marcy Park Student Housing Co-op", "color": "#E91E63"}}, {"type": "Feature", "geometry": {"type": "Point", "coordinates": [-93.23727706470585, 44.98673085294118]}, "properties": {"id": 62155106, "name": "Marcy Park Apartments", "color": "#4A90D9"}}, {"type": "Feature", "geometry": {"type": "Point", "coordinates": [-93.23300564545455, 44.9852602]}, "properties": {"id": 62155110, "name": "The Rail Apartments", "color": "#1ABC9C"}}, {"type": "Feature", "geometry": {"type": "Point", "coordinates": [-93.23172696666667, 44.98383622222222]}, "properties": {"id": 62155124, "name": "Varsity Apartments", "color": "#3498DB"}}, {"type": "Feature", "geometry": {"type": "Point", "coordinates": [-93.23676734, 44.98117162999999]}, "properties": {"id": 62155516, "name": "Kollege Klub", "color": "#E91E63"}}, {"type": "Feature", "geometry": {"type": "Point", "coordinates": [-93.23644458, 44.981083059999996]}, "properties": {"id": 62155517, "name": "Doyle Apartments", "color": "#2ECC71"}}, {"type": "Feature", "geometry": {"type": "Point", "coordinates": [-93.22924091538464, 44.983192838461534]}, "properties": {"id": 62155530, "name": "NorthStar Apartments in Dinkytown", "color": "#E74C3C"}}, {"type": "Feature", "geometry": {"type": "Point", "coordinates": [-93.23244628076921, 44.98115881923077]}, "properties": {"id": 62155531, "name": "Bierman Field Athletic Building", "color": "#3498DB"}}, {"type": "Feature", "geometry": {"type": "Point", "coordinates": [-93.24186899166666, 44.950855999999995]}, "properties": {"id": 62206867, "name": "Greenway Building", "color": "#9B59B6"}}, {"type": "Feature", "geometry": {"type": "Point", "coordinates": [-93.25796828000001, 44.96291888]}, "properties": {"id": 62260785, "name": "Roger Beck Florist", "color": "#E91E63"}}, {"type": "Feature", "geometry": {"type": "Point", "coordinates": [-93.2605633047619, 44.96252391428572]}, "properties": {"id": 62260786, "name": "Norway House", "color": "#E91E63"}}, {"type": "Feature", "geometry": {"type": "Point", "coordinates": [-93.27144293333333, 44.951315258333324]}, "properties": {"id": 62260788, "name": "28th St Parking", "color": "#2ECC71"}}, {"type": "Feature", "geometry": {"type": "Point", "coordinates": [-93.25586153846156, 44.96300555384615]}, "properties": {"id": 62260790, "name": "Franklin Branch", "color": "#E91E63"}}, {"type": "Feature", "geometry": {"type": "Point", "coordinates": [-93.25870495, 44.962956999999996]}, "properties": {"id": 62260791, "name": "Franklin Street Bakery", "color": "#E91E63"}}, {"type": "Feature", "geometry": {"type": "Point", "coordinates": [-93.26094909714288, 44.94953386857143]}, "properties": {"id": 62260813, "name": "Midtown Exchange", "color": "#E91E63"}}, {"type": "Feature", "geometry": {"type": "Point", "coordinates": [-93.26179239000001, 44.95147453]}, "properties": {"id": 62260816, "name": "Purple Ramp", "color": "#9B59B6"}}, {"type": "Feature", "geometry": {"type": "Point", "coordinates": [-93.24140016666668, 44.983126875]}, "properties": {"id": 62334789, "name": "University Inn", "color": "#E74C3C"}}, {"type": "Feature", "geometry": {"type": "Point", "coordinates": [-93.24988514693877, 44.98687946734693]}, "properties": {"id": 62334790, "name": "Marcy Elementary", "color": "#4A90D9"}}, {"type": "Feature", "geometry": {"type": "Point", "coordinates": [-93.26217014999999, 44.95316730833334]}, "properties": {"id": 62343080, "name": "Courage Kenny Rehabilitation Institute", "color": "#4A90D9"}}, {"type": "Feature", "geometry": {"type": "Point", "coordinates": [-93.26101148461538, 44.95519436923077]}, "properties": {"id": 62343085, "name": "Piper Building", "color": "#3498DB"}}, {"type": "Feature", "geometry": {"type": "Point", "coordinates": [-93.25866867714286, 44.95342082857143]}, "properties": {"id": 62343095, "name": "Andersen Middle", "color": "#E74C3C"}}, {"type": "Feature", "geometry": {"type": "Point", "coordinates": [-93.26211584999999, 44.95254378333334]}, "properties": {"id": 62343100, "name": "Wasie Building", "color": "#1ABC9C"}}, {"type": "Feature", "geometry": {"type": "Point", "coordinates": [-93.26060918888888, 44.95237493333333]}, "properties": {"id": 62343102, "name": "Orange Ramp", "color": "#4A90D9"}}, {"type": "Feature", "geometry": {"type": "Point", "coordinates": [-93.26188176000001, 44.95579841]}, "properties": {"id": 62343104, "name": "Midtown Doctors Building", "color": "#9B59B6"}}, {"type": "Feature", "geometry": {"type": "Point", "coordinates": [-93.29394306333333, 44.950822050000006]}, "properties": {"id": 63060189, "name": "Inspire", "color": "#50B86C"}}, {"type": "Feature", "geometry": {"type": "Point", "coordinates": [-93.29152875714286, 44.95067411428572]}, "properties": {"id": 63060192, "name": "Midtown Lofts", "color": "#F39C12"}}, {"type": "Feature", "geometry": {"type": "Point", "coordinates": [-93.29548092, 44.950959000000005]}, "properties": {"id": 63060195, "name": "The Fremont", "color": "#4A90D9"}}, {"type": "Feature", "geometry": {"type": "Point", "coordinates": [-93.29409924545456, 44.951684863636366]}, "properties": {"id": 63060197, "name": "Isles West", "color": "#E67E22"}}, {"type": "Feature", "geometry": {"type": "Point", "coordinates": [-93.29352170000001, 44.95167995714285]}, "properties": {"id": 63060198, "name": "Isles East", "color": "#1ABC9C"}}, {"type": "Feature", "geometry": {"type": "Point", "coordinates": [-93.25855986363636, 44.97069206363637]}, "properties": {"id": 63619278, "name": "Hope Community Church", "color": "#2ECC71"}}, {"type": "Feature", "geometry": {"type": "Point", "coordinates": [-93.25509630499998, 44.969249865]}, "properties": {"id": 63619279, "name": "Bethlehem Baptist", "color": "#E67E22"}}, {"type": "Feature", "geometry": {"type": "Point", "coordinates": [-93.26158995333331, 44.97034324]}, "properties": {"id": 63619637, "name": "Parkside Professional Building", "color": "#4A90D9"}}, {"type": "Feature", "geometry": {"type": "Point", "coordinates": [-93.26734120588236, 44.97296248235294]}, "properties": {"id": 63619638, "name": "Normandy Inn & Suites", "color": "#F39C12"}}, {"type": "Feature", "geometry": {"type": "Point", "coordinates": [-93.2699235964286, 44.97024862142859]}, "properties": {"id": 63619639, "name": "Hilton Garden Inn Minneapolis Downtown", "color": "#F39C12"}}, {"type": "Feature", "geometry": {"type": "Point", "coordinates": [-93.25483566923077, 44.97141696923076]}, "properties": {"id": 63619642, "name": "Minnesota Gateway Data Center", "color": "#E74C3C"}}, {"type": "Feature", "geometry": {"type": "Point", "coordinates": [-93.27978396666667, 44.9728894]}, "properties": {"id": 63821095, "name": "Yale Place Apartments", "color": "#50B86C"}}, {"type": "Feature", "geometry": {"type": "Point", "coordinates": [-93.27465924444445, 44.97355455555555]}, "properties": {"id": 63821108, "name": "Target Plaza Commons", "color": "#2ECC71"}}, {"type": "Feature", "geometry": {"type": "Point", "coordinates": [-93.27610606031752, 44.971314371428576]}, "properties": {"id": 63821145, "name": "Westminster Presbyterian", "color": "#4A90D9"}}, {"type": "Feature", "geometry": {"type": "Point", "coordinates": [-93.24080116, 44.984030940000004]}, "properties": {"id": 65817924, "name": "University of Minnesota Evans Scholarship House", "color": "#3498DB"}}, {"type": "Feature", "geometry": {"type": "Point", "coordinates": [-93.2486279857143, 44.98336532857143]}, "properties": {"id": 65817928, "name": "Flour Sack Flats", "color": "#1ABC9C"}}, {"type": "Feature", "geometry": {"type": "Point", "coordinates": [-93.2729133764706, 44.98832871176471]}, "properties": {"id": 65863326, "name": "Creamette Lofts", "color": "#50B86C"}}, {"type": "Feature", "geometry": {"type": "Point", "coordinates": [-93.27198554, 44.98852376000001]}, "properties": {"id": 65863412, "name": "FreightYard Townhomes and Flats", "color": "#E74C3C"}}, {"type": "Feature", "geometry": {"type": "Point", "coordinates": [-93.23427736666665, 44.97893953333333]}, "properties": {"id": 66209569, "name": "Chi Psi Fraternity", "color": "#50B86C"}}, {"type": "Feature", "geometry": {"type": "Point", "coordinates": [-93.23529637826086, 44.97926100869564]}, "properties": {"id": 66209574, "name": "1425 University Avenue SE", "color": "#E74C3C"}}, {"type": "Feature", "geometry": {"type": "Point", "coordinates": [-93.23092687777778, 44.97797343333334]}, "properties": {"id": 66209575, "name": "Phi Sigma Kappa Fraternity", "color": "#3498DB"}}, {"type": "Feature", "geometry": {"type": "Point", "coordinates": [-93.23141884285714, 44.97784528571428]}, "properties": {"id": 66209576, "name": "Delta Tau Delta Fraternity", "color": "#1ABC9C"}}, {"type": "Feature", "geometry": {"type": "Point", "coordinates": [-93.23434183333333, 44.979397233333344]}, "properties": {"id": 66209578, "name": "Sydney Hall", "color": "#E91E63"}}, {"type": "Feature", "geometry": {"type": "Point", "coordinates": [-93.23352887000003, 44.98255295833332]}, "properties": {"id": 66209581, "name": "Bierman Place Apartments", "color": "#F39C12"}}, {"type": "Feature", "geometry": {"type": "Point", "coordinates": [-93.23406574, 44.97882836]}, "properties": {"id": 66209583, "name": "Hillel House", "color": "#2ECC71"}}, {"type": "Feature", "geometry": {"type": "Point", "coordinates": [-93.2338625, 44.978668139999996]}, "properties": {"id": 66209584, "name": "Sigma Nu Fraternity", "color": "#E74C3C"}}, {"type": "Feature", "geometry": {"type": "Point", "coordinates": [-93.23105231428572, 44.97768052857143]}, "properties": {"id": 66209585, "name": "Alpha Delta Phi Fraternity", "color": "#E91E63"}}, {"type": "Feature", "geometry": {"type": "Point", "coordinates": [-93.23814746111111, 44.98052858888888]}, "properties": {"id": 66209586, "name": "University Baptist Church", "color": "#E67E22"}}, {"type": "Feature", "geometry": {"type": "Point", "coordinates": [-93.23691699999999, 44.98060645714286]}, "properties": {"id": 66209590, "name": "Varsity Theater", "color": "#4A90D9"}}, {"type": "Feature", "geometry": {"type": "Point", "coordinates": [-93.23724312222221, 44.98015324074075]}, "properties": {"id": 66209592, "name": "1301 University", "color": "#1ABC9C"}}, {"type": "Feature", "geometry": {"type": "Point", "coordinates": [-93.23161954, 44.97789916000001]}, "properties": {"id": 66209598, "name": "Delta Kappa Epsilon Fraternity", "color": "#4A90D9"}}, {"type": "Feature", "geometry": {"type": "Point", "coordinates": [-93.23227376249999, 44.97855875]}, "properties": {"id": 66209601, "name": "Keeler Apartments", "color": "#9B59B6"}}, {"type": "Feature", "geometry": {"type": "Point", "coordinates": [-93.23778222857142, 44.980923842857145]}, "properties": {"id": 66209603, "name": "Arvonne Fraser Library", "color": "#4A90D9"}}, {"type": "Feature", "geometry": {"type": "Point", "coordinates": [-93.23125507, 44.97780942999999]}, "properties": {"id": 66209604, "name": "Students' Cooperative", "color": "#2ECC71"}}, {"type": "Feature", "geometry": {"type": "Point", "coordinates": [-93.27036611428572, 44.953967542857136]}, "properties": {"id": 66470621, "name": "Wells Fargo Home Mortgage", "color": "#E67E22"}}, {"type": "Feature", "geometry": {"type": "Point", "coordinates": [-93.25211850476191, 44.95411314285714]}, "properties": {"id": 66794536, "name": "Mercy Center Masjid Alrahma", "color": "#F39C12"}}, {"type": "Feature", "geometry": {"type": "Point", "coordinates": [-93.24901205263157, 44.958819918421064]}, "properties": {"id": 66799398, "name": "Holy Rosary/Santo Rosario", "color": "#E91E63"}}, {"type": "Feature", "geometry": {"type": "Point", "coordinates": [-93.25282132727271, 44.95351867272727]}, "properties": {"id": 66799399, "name": "Fire Station 5", "color": "#3498DB"}}, {"type": "Feature", "geometry": {"type": "Point", "coordinates": [-93.23910007619048, 44.96248463333334]}, "properties": {"id": 66823280, "name": "The Playwrights' Center", "color": "#50B86C"}}, {"type": "Feature", "geometry": {"type": "Point", "coordinates": [-93.24029746666668, 44.962579016666666]}, "properties": {"id": 66823281, "name": "Movement Arts Center", "color": "#4A90D9"}}, {"type": "Feature", "geometry": {"type": "Point", "coordinates": [-93.23421894, 44.963062719999996]}, "properties": {"id": 66823291, "name": "Wells Fargo", "color": "#2ECC71"}}, {"type": "Feature", "geometry": {"type": "Point", "coordinates": [-93.24983561333333, 44.98900227333332]}, "properties": {"id": 67286478, "name": "Fire Station 11", "color": "#9B59B6"}}, {"type": "Feature", "geometry": {"type": "Point", "coordinates": [-93.29974253829788, 44.982632727659585]}, "properties": {"id": 67593978, "name": "Harrison Education Center", "color": "#E74C3C"}}, {"type": "Feature", "geometry": {"type": "Point", "coordinates": [-93.25692758823529, 44.95970393529411]}, "properties": {"id": 68169612, "name": "Phillips Community Center", "color": "#3498DB"}}, {"type": "Feature", "geometry": {"type": "Point", "coordinates": [-93.2516415, 44.99039785]}, "properties": {"id": 68518353, "name": "Holiday", "color": "#9B59B6"}}, {"type": "Feature", "geometry": {"type": "Point", "coordinates": [-93.23078928333331, 44.97280136666667]}, "properties": {"id": 68741999, "name": "Grace University Lutheran Church", "color": "#2ECC71"}}, {"type": "Feature", "geometry": {"type": "Point", "coordinates": [-93.28582282727271, 44.95885707272728]}, "properties": {"id": 69963799, "name": "Marcelle Arms Apartments", "color": "#3498DB"}}, {"type": "Feature", "geometry": {"type": "Point", "coordinates": [-93.29705514, 44.95575444]}, "properties": {"id": 69963808, "name": "Uptown Diner", "color": "#9B59B6"}}, {"type": "Feature", "geometry": {"type": "Point", "coordinates": [-93.27695024615385, 44.9611756923077]}, "properties": {"id": 69963813, "name": "Rose Manor", "color": "#2ECC71"}}, {"type": "Feature", "geometry": {"type": "Point", "coordinates": [-93.28649365999999, 44.95569322000001]}, "properties": {"id": 69963829, "name": "Modesto", "color": "#F39C12"}}, {"type": "Feature", "geometry": {"type": "Point", "coordinates": [-93.27912515000001, 44.96134631666667]}, "properties": {"id": 69963839, "name": "Taylor Building - Baker Management", "color": "#E67E22"}}, {"type": "Feature", "geometry": {"type": "Point", "coordinates": [-93.29750190833333, 44.95474046666667]}, "properties": {"id": 70194932, "name": "Red Cow", "color": "#E74C3C"}}, {"type": "Feature", "geometry": {"type": "Point", "coordinates": [-93.23348500277777, 44.97122682777778]}, "properties": {"id": 77458512, "name": "Variety Club Research Center", "color": "#2ECC71"}}, {"type": "Feature", "geometry": {"type": "Point", "coordinates": [-93.23267087599999, 44.97313570800001]}, "properties": {"id": 77458514, "name": "Molecular & Cellular Biology", "color": "#3498DB"}}, {"type": "Feature", "geometry": {"type": "Point", "coordinates": [-93.22981605999999, 44.97329428]}, "properties": {"id": 77458516, "name": "The Hub", "color": "#2ECC71"}}, {"type": "Feature", "geometry": {"type": "Point", "coordinates": [-93.23285805333333, 44.972698486666665]}, "properties": {"id": 77458523, "name": "Mayo Memorial Auditorium", "color": "#1ABC9C"}}, {"type": "Feature", "geometry": {"type": "Point", "coordinates": [-93.23407021666667, 44.97156388333334]}, "properties": {"id": 77458524, "name": "Children's Rehabilitation Center", "color": "#1ABC9C"}}, {"type": "Feature", "geometry": {"type": "Point", "coordinates": [-93.2297461736842, 44.975700036842106]}, "properties": {"id": 77964158, "name": "University Recreation and Wellness Center", "color": "#E74C3C"}}, {"type": "Feature", "geometry": {"type": "Point", "coordinates": [-93.27579972857143, 44.98648404285715]}, "properties": {"id": 78061899, "name": "Sunrise Banks", "color": "#4A90D9"}}, {"type": "Feature", "geometry": {"type": "Point", "coordinates": [-93.27411492222224, 44.98620173333333]}, "properties": {"id": 78061942, "name": "Free Spirit Building", "color": "#E74C3C"}}, {"type": "Feature", "geometry": {"type": "Point", "coordinates": [-93.27525899999999, 44.986135499999996]}, "properties": {"id": 78061946, "name": "Cuzzy's", "color": "#4A90D9"}}, {"type": "Feature", "geometry": {"type": "Point", "coordinates": [-93.24358961176468, 44.96307027058824]}, "properties": {"id": 79290573, "name": "Fire Station 7", "color": "#E67E22"}}, {"type": "Feature", "geometry": {"type": "Point", "coordinates": [-93.24171206, 44.9623771]}, "properties": {"id": 79290574, "name": "Seward Crossing", "color": "#3498DB"}}, {"type": "Feature", "geometry": {"type": "Point", "coordinates": [-93.24044107499999, 44.96294798333334]}, "properties": {"id": 79290578, "name": "Seward Inc.", "color": "#4A90D9"}}, {"type": "Feature", "geometry": {"type": "Point", "coordinates": [-93.23800194, 44.96289712]}, "properties": {"id": 79290591, "name": "Seward Grill", "color": "#3498DB"}}, {"type": "Feature", "geometry": {"type": "Point", "coordinates": [-93.23573232571431, 44.962518894285715]}, "properties": {"id": 79290593, "name": "Bethany Lutheran Church", "color": "#3498DB"}}, {"type": "Feature", "geometry": {"type": "Point", "coordinates": [-93.24119314166667, 44.96254784166667]}, "properties": {"id": 79290603, "name": "Seward Cafe", "color": "#1ABC9C"}}, {"type": "Feature", "geometry": {"type": "Point", "coordinates": [-93.23525907999999, 44.963736080000004]}, "properties": {"id": 79290607, "name": "Seward Towers", "color": "#50B86C"}}, {"type": "Feature", "geometry": {"type": "Point", "coordinates": [-93.23758063333332, 44.96259173333333]}, "properties": {"id": 79290622, "name": "Iftin Restaurant", "color": "#9B59B6"}}, {"type": "Feature", "geometry": {"type": "Point", "coordinates": [-93.26049362857144, 44.98592924999999]}, "properties": {"id": 80313504, "name": "Nicollet Island Inn", "color": "#3498DB"}}, {"type": "Feature", "geometry": {"type": "Point", "coordinates": [-93.2559045142857, 44.98851951428571]}, "properties": {"id": 80313506, "name": "Surdyk's Liquor & Cheese Shop", "color": "#2ECC71"}}, {"type": "Feature", "geometry": {"type": "Point", "coordinates": [-93.2604181076923, 44.97948290769231]}, "properties": {"id": 81049070, "name": "MacPhail Center for Music", "color": "#4A90D9"}}, {"type": "Feature", "geometry": {"type": "Point", "coordinates": [-93.25974318749999, 44.9791791625]}, "properties": {"id": 81049075, "name": "Metropolitan Lofts", "color": "#50B86C"}}, {"type": "Feature", "geometry": {"type": "Point", "coordinates": [-93.2677068, 44.97935596666667]}, "properties": {"id": 81049078, "name": "Family Justice Center", "color": "#4A90D9"}}, {"type": "Feature", "geometry": {"type": "Point", "coordinates": [-93.26046560714285, 44.97890952142858]}, "properties": {"id": 81049079, "name": "Depot Office Center", "color": "#E67E22"}}, {"type": "Feature", "geometry": {"type": "Point", "coordinates": [-93.25837784000001, 44.978371679999995]}, "properties": {"id": 81049087, "name": "Park Avenue Lofts", "color": "#E74C3C"}}, {"type": "Feature", "geometry": {"type": "Point", "coordinates": [-93.25495425652173, 44.977104778260866]}, "properties": {"id": 81049089, "name": "The Zenith", "color": "#1ABC9C"}}, {"type": "Feature", "geometry": {"type": "Point", "coordinates": [-93.26316782, 44.98174348]}, "properties": {"id": 81049100, "name": "The Carlyle", "color": "#E74C3C"}}, {"type": "Feature", "geometry": {"type": "Point", "coordinates": [-93.26249572, 44.97861053]}, "properties": {"id": 81049104, "name": "Gateway Municipal Garage", "color": "#50B86C"}}, {"type": "Feature", "geometry": {"type": "Point", "coordinates": [-93.25735301428573, 44.977815928571424]}, "properties": {"id": 81049118, "name": "Mill Quarter Parking Ramp", "color": "#9B59B6"}}, {"type": "Feature", "geometry": {"type": "Point", "coordinates": [-93.25502547142857, 44.97656615714285]}, "properties": {"id": 81049120, "name": "Aloft Minneapolis", "color": "#2ECC71"}}, {"type": "Feature", "geometry": {"type": "Point", "coordinates": [-93.25877004545455, 44.97671584545454]}, "properties": {"id": 81049125, "name": "Canopy by Hilton Minneapolis Mill District", "color": "#F39C12"}}, {"type": "Feature", "geometry": {"type": "Point", "coordinates": [-93.25313555000001, 44.97507728333333]}, "properties": {"id": 81049127, "name": "Day Block Building", "color": "#9B59B6"}}, {"type": "Feature", "geometry": {"type": "Point", "coordinates": [-93.26381340999998, 44.98179216]}, "properties": {"id": 81049129, "name": "Rivergate Apartments", "color": "#E67E22"}}, {"type": "Feature", "geometry": {"type": "Point", "coordinates": [-93.26021122857144, 44.97748397142857]}, "properties": {"id": 81049130, "name": "People Serving People", "color": "#3498DB"}}, {"type": "Feature", "geometry": {"type": "Point", "coordinates": [-93.25325131818181, 44.97612466363636]}, "properties": {"id": 81049135, "name": "The Bridgewater", "color": "#E67E22"}}, {"type": "Feature", "geometry": {"type": "Point", "coordinates": [-93.28709929285715, 44.968042714285716]}, "properties": {"id": 84515804, "name": "St. Mark's Episcopal Cathedral", "color": "#9B59B6"}}, {"type": "Feature", "geometry": {"type": "Point", "coordinates": [-93.28863075, 44.96329877142857]}, "properties": {"id": 84515807, "name": "The Watkins Building", "color": "#E74C3C"}}, {"type": "Feature", "geometry": {"type": "Point", "coordinates": [-93.22784913846152, 44.97519071153847]}, "properties": {"id": 86133533, "name": "McNamara Alumni Center", "color": "#1ABC9C"}}, {"type": "Feature", "geometry": {"type": "Point", "coordinates": [-93.23136004, 44.976204895]}, "properties": {"id": 86133535, "name": "Civil Engineering Building", "color": "#E67E22"}}, {"type": "Feature", "geometry": {"type": "Point", "coordinates": [-93.24967392, 44.98557168000001]}, "properties": {"id": 87484105, "name": "Lume", "color": "#F39C12"}}, {"type": "Feature", "geometry": {"type": "Point", "coordinates": [-93.24305159999999, 44.98884986]}, "properties": {"id": 87484161, "name": "Mill Trace Condominiums", "color": "#4A90D9"}}, {"type": "Feature", "geometry": {"type": "Point", "coordinates": [-93.25398793333335, 44.9903827]}, "properties": {"id": 87519938, "name": "Ambi\u00e8nte Gallerie", "color": "#2ECC71"}}, {"type": "Feature", "geometry": {"type": "Point", "coordinates": [-93.25431368, 44.990789740000004]}, "properties": {"id": 87519971, "name": "Calumet Lofts", "color": "#3498DB"}}, {"type": "Feature", "geometry": {"type": "Point", "coordinates": [-93.25040333999999, 44.98966352]}, "properties": {"id": 87520013, "name": "Sir Speedy", "color": "#1ABC9C"}}, {"type": "Feature", "geometry": {"type": "Point", "coordinates": [-93.23414827, 44.985714372499984]}, "properties": {"id": 87650227, "name": "The Denn Apartments", "color": "#3498DB"}}, {"type": "Feature", "geometry": {"type": "Point", "coordinates": [-93.23989715999998, 44.98502304]}, "properties": {"id": 88014589, "name": "Tau Kappa Epsilon Fraternity", "color": "#E67E22"}}, {"type": "Feature", "geometry": {"type": "Point", "coordinates": [-93.23824078, 44.983146080000004]}, "properties": {"id": 88014594, "name": "Wales House", "color": "#E67E22"}}, {"type": "Feature", "geometry": {"type": "Point", "coordinates": [-93.23841012307692, 44.98251880769231]}, "properties": {"id": 88014647, "name": "Cru House", "color": "#9B59B6"}}, {"type": "Feature", "geometry": {"type": "Point", "coordinates": [-93.23751817999998, 44.98329184]}, "properties": {"id": 88014768, "name": "Triangle Fraternity", "color": "#3498DB"}}, {"type": "Feature", "geometry": {"type": "Point", "coordinates": [-93.23818696, 44.98247286499999]}, "properties": {"id": 88014794, "name": "Gamma Eta Gamma Law House", "color": "#F39C12"}}, {"type": "Feature", "geometry": {"type": "Point", "coordinates": [-93.23850974000001, 44.98318974000001]}, "properties": {"id": 88014814, "name": "Pi Beta Phi Sorority", "color": "#9B59B6"}}, {"type": "Feature", "geometry": {"type": "Point", "coordinates": [-93.23679141333335, 44.98286531333334]}, "properties": {"id": 88014827, "name": "Saint Lawrence Catholic Church", "color": "#2ECC71"}}, {"type": "Feature", "geometry": {"type": "Point", "coordinates": [-93.23800642, 44.9830726]}, "properties": {"id": 88014837, "name": "Alpha Omicron Pi Sorority", "color": "#E91E63"}}, {"type": "Feature", "geometry": {"type": "Point", "coordinates": [-93.23458846190475, 44.981634557142854]}, "properties": {"id": 88014894, "name": "Marshall Student Housing Co-op", "color": "#2ECC71"}}, {"type": "Feature", "geometry": {"type": "Point", "coordinates": [-93.24113439999999, 44.98353035714286]}, "properties": {"id": 88014932, "name": "Sigma Alpha Mu Fraternity", "color": "#4A90D9"}}, {"type": "Feature", "geometry": {"type": "Point", "coordinates": [-93.24008732000001, 44.98312598]}, "properties": {"id": 88039932, "name": "Kappa Alpha Theta Sorority", "color": "#2ECC71"}}, {"type": "Feature", "geometry": {"type": "Point", "coordinates": [-93.2475746818182, 44.96941367272728]}, "properties": {"id": 88039934, "name": "Cedar Cultural Center", "color": "#2ECC71"}}, {"type": "Feature", "geometry": {"type": "Point", "coordinates": [-93.24047206, 44.982014019999994]}, "properties": {"id": 88039940, "name": "Phi Delta Chi", "color": "#E67E22"}}, {"type": "Feature", "geometry": {"type": "Point", "coordinates": [-93.24936496000001, 44.970775159999995]}, "properties": {"id": 88039967, "name": "Mixed Blood Theatre", "color": "#3498DB"}}, {"type": "Feature", "geometry": {"type": "Point", "coordinates": [-93.24070936363637, 44.982887809090904]}, "properties": {"id": 88039984, "name": "Sigma Phi Epsilon", "color": "#E67E22"}}, {"type": "Feature", "geometry": {"type": "Point", "coordinates": [-93.23939163333333, 44.98099813333333]}, "properties": {"id": 88040017, "name": "Phi Gamma Delta", "color": "#3498DB"}}, {"type": "Feature", "geometry": {"type": "Point", "coordinates": [-93.2399288142857, 44.981237885714286]}, "properties": {"id": 88040050, "name": "The Knoll Apartments", "color": "#4A90D9"}}, {"type": "Feature", "geometry": {"type": "Point", "coordinates": [-93.23965762, 44.981039]}, "properties": {"id": 88040086, "name": "Chabad U of M - The Rohr Center for Jewish Student Life", "color": "#F39C12"}}, {"type": "Feature", "geometry": {"type": "Point", "coordinates": [-93.24825635454545, 44.96926007272727]}, "properties": {"id": 88040107, "name": "McKnight Tower Apartments", "color": "#F39C12"}}, {"type": "Feature", "geometry": {"type": "Point", "coordinates": [-93.24937223636363, 44.969056300000005]}, "properties": {"id": 88040124, "name": "Chase House Apartments", "color": "#50B86C"}}, {"type": "Feature", "geometry": {"type": "Point", "coordinates": [-93.23968854, 44.983073440000005]}, "properties": {"id": 88040155, "name": "Delta Gamma Sorority", "color": "#4A90D9"}}, {"type": "Feature", "geometry": {"type": "Point", "coordinates": [-93.2403960810811, 44.98044892702702]}, "properties": {"id": 88040175, "name": "Sanford Hall", "color": "#3498DB"}}, {"type": "Feature", "geometry": {"type": "Point", "coordinates": [-93.24094574, 44.98150707999999]}, "properties": {"id": 88040194, "name": "Sigma Pi Fraternity", "color": "#E91E63"}}, {"type": "Feature", "geometry": {"type": "Point", "coordinates": [-93.23985146666668, 44.98177306666667]}, "properties": {"id": 88040215, "name": "Kappa Eta Kappa", "color": "#E91E63"}}, {"type": "Feature", "geometry": {"type": "Point", "coordinates": [-93.25062731599999, 44.970691984]}, "properties": {"id": 88040278, "name": "Brian Coyle Center", "color": "#F39C12"}}, {"type": "Feature", "geometry": {"type": "Point", "coordinates": [-93.23907806000001, 44.982762300000005]}, "properties": {"id": 88040285, "name": "Alpha Epsilon Pi Fraternity", "color": "#1ABC9C"}}, {"type": "Feature", "geometry": {"type": "Point", "coordinates": [-93.24041155714285, 44.983287242857145]}, "properties": {"id": 88040298, "name": "Kappa Sigma", "color": "#9B59B6"}}, {"type": "Feature", "geometry": {"type": "Point", "coordinates": [-93.23390515428571, 44.97728704]}, "properties": {"id": 88040354, "name": "Nolte Center", "color": "#F39C12"}}, {"type": "Feature", "geometry": {"type": "Point", "coordinates": [-93.30183731428569, 44.9591074857143]}, "properties": {"id": 88437663, "name": "Catherine Gray House", "color": "#50B86C"}}, {"type": "Feature", "geometry": {"type": "Point", "coordinates": [-93.2976724125, 44.952847837499995]}, "properties": {"id": 88441713, "name": "K|S Lash Brow & Beauty", "color": "#1ABC9C"}}, {"type": "Feature", "geometry": {"type": "Point", "coordinates": [-93.2985209263158, 44.9528654368421]}, "properties": {"id": 88441715, "name": "H & B Gallery", "color": "#E91E63"}}, {"type": "Feature", "geometry": {"type": "Point", "coordinates": [-93.29853341999998, 44.95352538]}, "properties": {"id": 88441724, "name": "Isle View", "color": "#F39C12"}}, {"type": "Feature", "geometry": {"type": "Point", "coordinates": [-93.2994116910448, 44.951681328358205]}, "properties": {"id": 88441732, "name": "Kenwood Isles", "color": "#3498DB"}}, {"type": "Feature", "geometry": {"type": "Point", "coordinates": [-93.29468902857143, 44.958683857142866]}, "properties": {"id": 88444149, "name": "Studio 24 Custom Fittness", "color": "#E67E22"}}, {"type": "Feature", "geometry": {"type": "Point", "coordinates": [-93.29614095000001, 44.95690659000001]}, "properties": {"id": 88444150, "name": "Namaste Cafe", "color": "#50B86C"}}, {"type": "Feature", "geometry": {"type": "Point", "coordinates": [-93.29580262307692, 44.9572249]}, "properties": {"id": 88444151, "name": "Osman Cleaners", "color": "#E91E63"}}, {"type": "Feature", "geometry": {"type": "Point", "coordinates": [-93.29499285714287, 44.95843238571429]}, "properties": {"id": 88444157, "name": "U.S. Bank", "color": "#3498DB"}}, {"type": "Feature", "geometry": {"type": "Point", "coordinates": [-93.29722903636365, 44.95532765454545]}, "properties": {"id": 88444165, "name": "Chipotle", "color": "#50B86C"}}, {"type": "Feature", "geometry": {"type": "Point", "coordinates": [-93.29626564, 44.956804340000005]}, "properties": {"id": 88444168, "name": "Nico's Taco and Tequila Bar", "color": "#2ECC71"}}, {"type": "Feature", "geometry": {"type": "Point", "coordinates": [-93.28948998333334, 44.965696583333326]}, "properties": {"id": 88446363, "name": "Kenwood Court", "color": "#E67E22"}}, {"type": "Feature", "geometry": {"type": "Point", "coordinates": [-93.29217453448277, 44.96310945517241]}, "properties": {"id": 88446367, "name": "The Belmont Apartments", "color": "#E67E22"}}, {"type": "Feature", "geometry": {"type": "Point", "coordinates": [-93.29266668421053, 44.96228872631578]}, "properties": {"id": 88446370, "name": "Minneapolis Scottish Rite Temple", "color": "#4A90D9"}}, {"type": "Feature", "geometry": {"type": "Point", "coordinates": [-93.29120478, 44.96345352]}, "properties": {"id": 88446382, "name": "Lowry Hill Liquors", "color": "#E91E63"}}, {"type": "Feature", "geometry": {"type": "Point", "coordinates": [-93.29723410000001, 44.959928839999996]}, "properties": {"id": 88466165, "name": "Venetia", "color": "#E67E22"}}, {"type": "Feature", "geometry": {"type": "Point", "coordinates": [-93.29730629999999, 44.960333500000004]}, "properties": {"id": 88466193, "name": "Bellefonte Ieles Apartments", "color": "#1ABC9C"}}, {"type": "Feature", "geometry": {"type": "Point", "coordinates": [-93.29464662000001, 44.96075674]}, "properties": {"id": 88466294, "name": "Rita's House", "color": "#2ECC71"}}, {"type": "Feature", "geometry": {"type": "Point", "coordinates": [-93.2973128, 44.960110900000004]}, "properties": {"id": 88466299, "name": "Francia", "color": "#F39C12"}}, {"type": "Feature", "geometry": {"type": "Point", "coordinates": [-93.27053764444445, 44.96235393333333]}, "properties": {"id": 88695221, "name": "The Electric Fetus", "color": "#E74C3C"}}, {"type": "Feature", "geometry": {"type": "Point", "coordinates": [-93.29411294, 44.95868814000001]}, "properties": {"id": 88714151, "name": "In the Heart of the Beast", "color": "#9B59B6"}}, {"type": "Feature", "geometry": {"type": "Point", "coordinates": [-93.28331806428571, 44.97302944285714]}, "properties": {"id": 89061902, "name": "Technical Building", "color": "#E67E22"}}, {"type": "Feature", "geometry": {"type": "Point", "coordinates": [-93.28182811666666, 44.97865253333333]}, "properties": {"id": 89061906, "name": "Lee's Liquor Lounge", "color": "#E91E63"}}, {"type": "Feature", "geometry": {"type": "Point", "coordinates": [-93.28148826, 44.97503788]}, "properties": {"id": 89061909, "name": "Laurel Village Managment Office", "color": "#4A90D9"}}, {"type": "Feature", "geometry": {"type": "Point", "coordinates": [-93.27986564285716, 44.97769051428572]}, "properties": {"id": 89061912, "name": "Catholic Charities", "color": "#4A90D9"}}, {"type": "Feature", "geometry": {"type": "Point", "coordinates": [-93.28257767727273, 44.971749631818184]}, "properties": {"id": 89061914, "name": "Whitney Fine Arts Center", "color": "#2ECC71"}}, {"type": "Feature", "geometry": {"type": "Point", "coordinates": [-93.2812805, 44.97469063333334]}, "properties": {"id": 89061916, "name": "DeForest", "color": "#50B86C"}}, {"type": "Feature", "geometry": {"type": "Point", "coordinates": [-93.28380390000001, 44.97444374444444]}, "properties": {"id": 89061920, "name": "Laurel Curve", "color": "#3498DB"}}, {"type": "Feature", "geometry": {"type": "Point", "coordinates": [-93.28195891111112, 44.97498322222222]}, "properties": {"id": 89061922, "name": "Swinford", "color": "#50B86C"}}, {"type": "Feature", "geometry": {"type": "Point", "coordinates": [-93.28247994285714, 44.974620785714286]}, "properties": {"id": 89061923, "name": "The McNair", "color": "#4A90D9"}}, {"type": "Feature", "geometry": {"type": "Point", "coordinates": [-93.2827616576923, 44.97211170384615]}, "properties": {"id": 89061924, "name": "Helland Center", "color": "#4A90D9"}}, {"type": "Feature", "geometry": {"type": "Point", "coordinates": [-93.28281577777777, 44.97431332592593]}, "properties": {"id": 89061929, "name": "Wilson Park Tower", "color": "#3498DB"}}, {"type": "Feature", "geometry": {"type": "Point", "coordinates": [-93.2841999642857, 44.9723738]}, "properties": {"id": 89061932, "name": "Kopp Hall", "color": "#1ABC9C"}}, {"type": "Feature", "geometry": {"type": "Point", "coordinates": [-93.28300188421052, 44.976308547368404]}, "properties": {"id": 89061935, "name": "Pheoll", "color": "#4A90D9"}}, {"type": "Feature", "geometry": {"type": "Point", "coordinates": [-93.28608844444445, 44.97376512777779]}, "properties": {"id": 89061938, "name": "Basilica School", "color": "#50B86C"}}, {"type": "Feature", "geometry": {"type": "Point", "coordinates": [-93.28125573333335, 44.975308599999984]}, "properties": {"id": 89061939, "name": "Alden Apartments", "color": "#E91E63"}}, {"type": "Feature", "geometry": {"type": "Point", "coordinates": [-93.28673230555556, 44.973424827777784]}, "properties": {"id": 89061945, "name": "Reardon Rectory", "color": "#50B86C"}}, {"type": "Feature", "geometry": {"type": "Point", "coordinates": [-93.28272397500001, 44.97840663333334]}, "properties": {"id": 89061946, "name": "City of Minneapolis Equipment", "color": "#E67E22"}}, {"type": "Feature", "geometry": {"type": "Point", "coordinates": [-93.28237531250001, 44.972343887499996]}, "properties": {"id": 89061948, "name": "Wells Family College Center", "color": "#E91E63"}}, {"type": "Feature", "geometry": {"type": "Point", "coordinates": [-93.2803897, 44.9763346]}, "properties": {"id": 89061954, "name": "Firestone", "color": "#9B59B6"}}, {"type": "Feature", "geometry": {"type": "Point", "coordinates": [-93.28045664999998, 44.97550936666667]}, "properties": {"id": 89061957, "name": "United States Post Office", "color": "#1ABC9C"}}, {"type": "Feature", "geometry": {"type": "Point", "coordinates": [-93.28161366666666, 44.98549991666667]}, "properties": {"id": 89070216, "name": "Inbound BrewCo", "color": "#4A90D9"}}, {"type": "Feature", "geometry": {"type": "Point", "coordinates": [-93.278537725, 44.984203875000006]}, "properties": {"id": 89070219, "name": "National Marrow Donor Program", "color": "#9B59B6"}}, {"type": "Feature", "geometry": {"type": "Point", "coordinates": [-93.27908349166667, 44.984968925000004]}, "properties": {"id": 89070220, "name": "Fulton Brewing Taproom", "color": "#4A90D9"}}, {"type": "Feature", "geometry": {"type": "Point", "coordinates": [-93.28480549999999, 44.98109916]}, "properties": {"id": 89070221, "name": "City of Minneapolis Traffic", "color": "#E91E63"}}, {"type": "Feature", "geometry": {"type": "Point", "coordinates": [-93.28117939838708, 44.98124383225806]}, "properties": {"id": 89070224, "name": "Mary's Place", "color": "#E91E63"}}, {"type": "Feature", "geometry": {"type": "Point", "coordinates": [-93.28379479999997, 44.98554736666668]}, "properties": {"id": 89070225, "name": "Fred T. Heywood Garage", "color": "#E67E22"}}, {"type": "Feature", "geometry": {"type": "Point", "coordinates": [-93.2860056, 44.98352666363637]}, "properties": {"id": 89070226, "name": "Cintas Uniform Services", "color": "#E74C3C"}}, {"type": "Feature", "geometry": {"type": "Point", "coordinates": [-93.28616980000002, 44.978716052]}, "properties": {"id": 89070227, "name": "Glenwood-Evergreen Building", "color": "#4A90D9"}}, {"type": "Feature", "geometry": {"type": "Point", "coordinates": [-93.28184775000001, 44.984568599999996]}, "properties": {"id": 89070228, "name": "Fred T. Heywood Office and Police Building", "color": "#2ECC71"}}, {"type": "Feature", "geometry": {"type": "Point", "coordinates": [-93.28616048, 44.98263238]}, "properties": {"id": 89070231, "name": "US Storage Centers", "color": "#1ABC9C"}}, {"type": "Feature", "geometry": {"type": "Point", "coordinates": [-93.28268612631578, 44.98327045263159]}, "properties": {"id": 89070248, "name": "Sharing & Caring Hands", "color": "#9B59B6"}}, {"type": "Feature", "geometry": {"type": "Point", "coordinates": [-93.27380739999998, 44.9816008]}, "properties": {"id": 89080618, "name": "Textile Building", "color": "#3498DB"}}, {"type": "Feature", "geometry": {"type": "Point", "coordinates": [-93.27386778, 44.9792079]}, "properties": {"id": 89080619, "name": "Hennepin Center for the Arts", "color": "#3498DB"}}, {"type": "Feature", "geometry": {"type": "Point", "coordinates": [-93.27349950000001, 44.979500277777774]}, "properties": {"id": 89080630, "name": "Goodale Theater", "color": "#2ECC71"}}, {"type": "Feature", "geometry": {"type": "Point", "coordinates": [-93.27295039999998, 44.98447874]}, "properties": {"id": 89080632, "name": "J.D. Hoyt's Supper Club", "color": "#E91E63"}}, {"type": "Feature", "geometry": {"type": "Point", "coordinates": [-93.2717086222222, 44.98468973333334]}, "properties": {"id": 89080635, "name": "Monte Carlo", "color": "#E74C3C"}}, {"type": "Feature", "geometry": {"type": "Point", "coordinates": [-93.27217863999999, 44.98121574]}, "properties": {"id": 89080645, "name": "Brill Building", "color": "#9B59B6"}}, {"type": "Feature", "geometry": {"type": "Point", "coordinates": [-93.27333327142857, 44.98470227142858]}, "properties": {"id": 89080678, "name": "Deja Vu", "color": "#2ECC71"}}, {"type": "Feature", "geometry": {"type": "Point", "coordinates": [-93.27237419999999, 44.98072218]}, "properties": {"id": 89080683, "name": "1st Precinct", "color": "#50B86C"}}, {"type": "Feature", "geometry": {"type": "Point", "coordinates": [-93.27279, 44.980116900000006]}, "properties": {"id": 89080691, "name": "Sneaky Pete's", "color": "#3498DB"}}, {"type": "Feature", "geometry": {"type": "Point", "coordinates": [-93.27242864, 44.97996811]}, "properties": {"id": 89080700, "name": "Brass Rail", "color": "#E91E63"}}, {"type": "Feature", "geometry": {"type": "Point", "coordinates": [-93.26935887272727, 44.98447122727273]}, "properties": {"id": 89080705, "name": "Second and Second", "color": "#4A90D9"}}, {"type": "Feature", "geometry": {"type": "Point", "coordinates": [-93.27003534, 44.98557006]}, "properties": {"id": 89080724, "name": "William's Building", "color": "#1ABC9C"}}, {"type": "Feature", "geometry": {"type": "Point", "coordinates": [-93.26753636, 44.98462828]}, "properties": {"id": 89080733, "name": "Kado no Mise", "color": "#1ABC9C"}}, {"type": "Feature", "geometry": {"type": "Point", "coordinates": [-93.27530608, 44.98788275999999]}, "properties": {"id": 89084073, "name": "Mill City Apartments", "color": "#9B59B6"}}, {"type": "Feature", "geometry": {"type": "Point", "coordinates": [-93.25123668333333, 44.98951605]}, "properties": {"id": 89531591, "name": "Brasa", "color": "#50B86C"}}, {"type": "Feature", "geometry": {"type": "Point", "coordinates": [-93.2510623875, 44.9896080875]}, "properties": {"id": 89531594, "name": "Central Hennepin Auto Body", "color": "#4A90D9"}}, {"type": "Feature", "geometry": {"type": "Point", "coordinates": [-93.25478410000001, 44.99009312]}, "properties": {"id": 89531612, "name": "Baraka Auto Center", "color": "#1ABC9C"}}, {"type": "Feature", "geometry": {"type": "Point", "coordinates": [-93.2579845, 44.98704108571428]}, "properties": {"id": 89532203, "name": "The M on Hennepin", "color": "#E74C3C"}}, {"type": "Feature", "geometry": {"type": "Point", "coordinates": [-93.25455174, 44.98831538]}, "properties": {"id": 89532224, "name": "Whitey's Saloon", "color": "#2ECC71"}}, {"type": "Feature", "geometry": {"type": "Point", "coordinates": [-93.25748944615384, 44.98679494615385]}, "properties": {"id": 89532252, "name": "Our Lady of Lourdes", "color": "#E74C3C"}}, {"type": "Feature", "geometry": {"type": "Point", "coordinates": [-93.29522815925927, 44.97078610074076]}, "properties": {"id": 92796968, "name": "Parade Ice Garden", "color": "#3498DB"}}, {"type": "Feature", "geometry": {"type": "Point", "coordinates": [-93.29328340172414, 44.96951501551725]}, "properties": {"id": 92796973, "name": "The Blake School", "color": "#F39C12"}}, {"type": "Feature", "geometry": {"type": "Point", "coordinates": [-93.2812786642857, 44.96926608095237]}, "properties": {"id": 92810541, "name": "Eitel Building City Apartments", "color": "#50B86C"}}, {"type": "Feature", "geometry": {"type": "Point", "coordinates": [-93.27722823333335, 44.96695296666666]}, "properties": {"id": 92810544, "name": "Rayito de Sol", "color": "#F39C12"}}, {"type": "Feature", "geometry": {"type": "Point", "coordinates": [-93.27906727999998, 44.96743416]}, "properties": {"id": 92810545, "name": "The Parkway", "color": "#1ABC9C"}}, {"type": "Feature", "geometry": {"type": "Point", "coordinates": [-93.28228773750001, 44.9712664875]}, "properties": {"id": 92810547, "name": "Booth Manor", "color": "#3498DB"}}, {"type": "Feature", "geometry": {"type": "Point", "coordinates": [-93.2772385, 44.96824604285714]}, "properties": {"id": 92810548, "name": "Cromwell Commons", "color": "#1ABC9C"}}, {"type": "Feature", "geometry": {"type": "Point", "coordinates": [-93.2800011212766, 44.97154552340425]}, "properties": {"id": 92810558, "name": "Loring Green West", "color": "#3498DB"}}, {"type": "Feature", "geometry": {"type": "Point", "coordinates": [-93.27712404285714, 44.96961717142857]}, "properties": {"id": 92810565, "name": "Shoreline Plaza", "color": "#3498DB"}}, {"type": "Feature", "geometry": {"type": "Point", "coordinates": [-93.2768684888889, 44.967094877777775]}, "properties": {"id": 92810569, "name": "Archdale Apartments", "color": "#1ABC9C"}}, {"type": "Feature", "geometry": {"type": "Point", "coordinates": [-93.27896528000001, 44.96709770000001]}, "properties": {"id": 92810573, "name": "LaSalle Commons", "color": "#E67E22"}}, {"type": "Feature", "geometry": {"type": "Point", "coordinates": [-93.27612872, 44.969529900000005]}, "properties": {"id": 92810581, "name": "Historic Wesley Center", "color": "#50B86C"}}, {"type": "Feature", "geometry": {"type": "Point", "coordinates": [-93.28140063333333, 44.970398430555555]}, "properties": {"id": 92810587, "name": "Loring Way", "color": "#1ABC9C"}}, {"type": "Feature", "geometry": {"type": "Point", "coordinates": [-93.28046464444444, 44.97208694444445]}, "properties": {"id": 92810597, "name": "Wellington Co-op", "color": "#3498DB"}}, {"type": "Feature", "geometry": {"type": "Point", "coordinates": [-93.27845043928572, 44.97377063571429]}, "properties": {"id": 92810608, "name": "School of Law", "color": "#F39C12"}}, {"type": "Feature", "geometry": {"type": "Point", "coordinates": [-93.27689609000001, 44.968258309999996]}, "properties": {"id": 92810610, "name": "Stradford Flats", "color": "#E67E22"}}, {"type": "Feature", "geometry": {"type": "Point", "coordinates": [-93.27735907499999, 44.9673697875]}, "properties": {"id": 92810614, "name": "Micah House", "color": "#F39C12"}}, {"type": "Feature", "geometry": {"type": "Point", "coordinates": [-93.27739752727274, 44.96912439090909]}, "properties": {"id": 92810621, "name": "Loring 100 Apartments", "color": "#9B59B6"}}, {"type": "Feature", "geometry": {"type": "Point", "coordinates": [-93.27997888, 44.968996626666666]}, "properties": {"id": 92810624, "name": "LPM Apartments", "color": "#4A90D9"}}, {"type": "Feature", "geometry": {"type": "Point", "coordinates": [-93.28031607999999, 44.97071574]}, "properties": {"id": 92905808, "name": "One Ten Grant", "color": "#E67E22"}}, {"type": "Feature", "geometry": {"type": "Point", "coordinates": [-93.27980726829269, 44.9702617390244]}, "properties": {"id": 92905811, "name": "The Maryland", "color": "#4A90D9"}}, {"type": "Feature", "geometry": {"type": "Point", "coordinates": [-93.2776937238095, 44.971903976190475]}, "properties": {"id": 92905816, "name": "1200 On The Mall Condominiums", "color": "#3498DB"}}, {"type": "Feature", "geometry": {"type": "Point", "coordinates": [-93.27313755, 44.9749791125]}, "properties": {"id": 92905817, "name": "Medical Arts Building", "color": "#F39C12"}}, {"type": "Feature", "geometry": {"type": "Point", "coordinates": [-93.27899036, 44.97233566999999]}, "properties": {"id": 92905842, "name": "Loring Green East", "color": "#2ECC71"}}, {"type": "Feature", "geometry": {"type": "Point", "coordinates": [-93.25438945000002, 44.98455358]}, "properties": {"id": 92905847, "name": "Minneapolis Event Centers", "color": "#9B59B6"}}, {"type": "Feature", "geometry": {"type": "Point", "coordinates": [-93.24921604666663, 44.99195968444443]}, "properties": {"id": 92914631, "name": "Electric Machinery Co. Inc.", "color": "#3498DB"}}, {"type": "Feature", "geometry": {"type": "Point", "coordinates": [-93.28695351818183, 44.966334221212136]}, "properties": {"id": 93481564, "name": "Dignity Center", "color": "#9B59B6"}}, {"type": "Feature", "geometry": {"type": "Point", "coordinates": [-93.2797062, 44.96750475555555]}, "properties": {"id": 93481565, "name": "The Buckingham", "color": "#E74C3C"}}, {"type": "Feature", "geometry": {"type": "Point", "coordinates": [-93.27908507777778, 44.967975900000006]}, "properties": {"id": 93481566, "name": "Soleil Apartments", "color": "#2ECC71"}}, {"type": "Feature", "geometry": {"type": "Point", "coordinates": [-93.27904153076926, 44.96865470769231]}, "properties": {"id": 93481567, "name": "The Kensington", "color": "#1ABC9C"}}, {"type": "Feature", "geometry": {"type": "Point", "coordinates": [-93.27897592500001, 44.968246050000005]}, "properties": {"id": 93481569, "name": "The Commodore Apartments", "color": "#E67E22"}}, {"type": "Feature", "geometry": {"type": "Point", "coordinates": [-93.27700833333331, 44.974269420000006]}, "properties": {"id": 93481572, "name": "Terrence Murphy Hall", "color": "#4A90D9"}}, {"type": "Feature", "geometry": {"type": "Point", "coordinates": [-93.25056803846152, 44.98934856923078]}, "properties": {"id": 93677581, "name": "Lit Happens", "color": "#50B86C"}}, {"type": "Feature", "geometry": {"type": "Point", "coordinates": [-93.2486458, 44.99043871666667]}, "properties": {"id": 93677602, "name": "Children's Dental Services", "color": "#E67E22"}}, {"type": "Feature", "geometry": {"type": "Point", "coordinates": [-93.25886891212122, 44.98794473333335]}, "properties": {"id": 93680819, "name": "The Pinnacle", "color": "#4A90D9"}}, {"type": "Feature", "geometry": {"type": "Point", "coordinates": [-93.27845866818183, 44.951586245454536]}, "properties": {"id": 95046921, "name": "Whittier Clinic", "color": "#3498DB"}}, {"type": "Feature", "geometry": {"type": "Point", "coordinates": [-93.29761894705882, 44.98856992352942]}, "properties": {"id": 97193547, "name": "Gold Star Distribution Inc", "color": "#1ABC9C"}}, {"type": "Feature", "geometry": {"type": "Point", "coordinates": [-93.27913806666665, 44.962364533333336]}, "properties": {"id": 99557633, "name": "Park Nicollet Clinic - Minneapolis", "color": "#E67E22"}}, {"type": "Feature", "geometry": {"type": "Point", "coordinates": [-93.28044392608692, 44.96316651304348]}, "properties": {"id": 99557636, "name": "Minnesota Church Center", "color": "#E74C3C"}}, {"type": "Feature", "geometry": {"type": "Point", "coordinates": [-93.24650614666666, 44.96318396000001]}, "properties": {"id": 99713937, "name": "Volunteers of America-Minnesota Education Center", "color": "#4A90D9"}}, {"type": "Feature", "geometry": {"type": "Point", "coordinates": [-93.2711893375, 44.978652600000004]}, "properties": {"id": 99714289, "name": "The Andrus", "color": "#4A90D9"}}, {"type": "Feature", "geometry": {"type": "Point", "coordinates": [-93.27156858888885, 44.978260333333345]}, "properties": {"id": 99714290, "name": "50 South Sixth", "color": "#E67E22"}}, {"type": "Feature", "geometry": {"type": "Point", "coordinates": [-93.25580778000001, 44.97753915]}, "properties": {"id": 99717608, "name": "Riverfront Municipal Parking Ramp", "color": "#4A90D9"}}, {"type": "Feature", "geometry": {"type": "Point", "coordinates": [-93.28905441666666, 44.97847382500001]}, "properties": {"id": 101142612, "name": "Hirshfield's Minneapolis Contractor Service Center", "color": "#9B59B6"}}, {"type": "Feature", "geometry": {"type": "Point", "coordinates": [-93.28844837222222, 44.97645575555555]}, "properties": {"id": 101142637, "name": "CenterPoint Energy", "color": "#E74C3C"}}, {"type": "Feature", "geometry": {"type": "Point", "coordinates": [-93.29936726481483, 44.981283035185186]}, "properties": {"id": 101142643, "name": "River Bend Education Center", "color": "#2ECC71"}},